$GNRMC,065117.00,A,2502.95811,N,12122.42213,E,0.016,,081020,,,A*63
$GNVTG,,T,,M,0.016,N,0.029,K,A*31
$GNGGA,065117.00,2502.95811,N,12122.42213,E,1,08,1.19,279.8,M,16.7,M,,*46
$GNGSA,A,3,15,18,20,23,24,12,,,,,,,2.16,1.19,1.81*13
$GNGSA,A,3,78,79,,,,,,,,,,,2.16,1.19,1.81*19
$GPGSV,3,1,10,10,,,36,12,13,151,36,13,,,35,15,43,035,41*7B
$GPGSV,3,2,10,18,63,259,40,20,45,328,40,23,40,329,40,24,82,092,42*79
$GPGSV,3,3,10,41,38,242,39,50,51,134,40*7B
$GLGSV,1,1,03,78,48,076,40,79,39,155,36,,,,39*6A
$GNGLL,2502.95811,N,12122.42213,E,065117.00,A,A*76
$GNRMC,065118.00,A,2502.95813,N,12122.42214,E,0.017,,081020,,,A*68
$GNVTG,,T,,M,0.017,N,0.032,K,A*3A
$GNGGA,065118.00,2502.95813,N,12122.42214,E,1,08,1.19,279.6,M,16.7,M,,*42
$GNGSA,A,3,15,18,20,23,24,12,,,,,,,2.16,1.19,1.81*13
$GNGSA,A,3,78,79,,,,,,,,,,,2.16,1.19,1.81*19
$GPGSV,3,1,10,10,,,38,12,13,151,38,13,,,37,15,43,035,43*7B
$GPGSV,3,2,10,18,63,259,42,20,45,328,41,23,40,329,43,24,82,092,45*7E
$GPGSV,3,3,10,41,38,242,41,50,51,134,41*75
$GLGSV,1,1,04,78,48,076,43,79,39,155,40,,,,42,,,,37*67
$GNGLL,2502.95813,N,12122.42214,E,065118.00,A,A*7C
$GNRMC,065119.00,A,2502.95814,N,12122.42217,E,0.096,,081020,,,A*64
$GNVTG,,T,,M,0.096,N,0.178,K,A*3C
$GNGGA,065119.00,2502.95814,N,12122.42217,E,1,09,1.05,279.3,M,16.7,M,,*4E
$GNGSA,A,3,15,18,20,23,24,12,13,,,,,,1.81,1.05,1.47*1B
$GNGSA,A,3,78,79,,,,,,,,,,,1.81,1.05,1.47*13
$GPGSV,3,1,10,10,,,36,12,13,151,38,13,14,051,35,15,43,035,42*47
$GPGSV,3,2,10,18,63,259,41,20,45,328,40,23,40,329,41,24,82,092,43*78
$GPGSV,3,3,10,41,38,242,40,50,51,134,40*75
$GLGSV,1,1,04,78,48,076,36,79,39,155,30,,,,36,,,,33*65
$GNGLL,2502.95814,N,12122.42217,E,065119.00,A,A*79
$GNRMC,065120.00,A,2502.95815,N,12122.42219,E,0.028,,081020,,,A*64
$GNVTG,,T,,M,0.028,N,0.053,K,A*31
$GNGGA,065120.00,2502.95815,N,12122.42219,E,1,09,1.06,279.0,M,16.7,M,,*4B
$GNGSA,A,3,15,18,20,23,24,12,13,,,,,,1.81,1.06,1.47*18
$GNGSA,A,3,78,79,,,,,,,,,,,1.81,1.06,1.47*10
$GPGSV,3,1,10,10,,,37,12,13,151,38,13,14,051,37,15,43,035,42*44
$GPGSV,3,2,10,18,63,259,42,20,45,328,41,23,40,329,42,24,82,092,44*7E
$GPGSV,3,3,10,41,38,242,40,50,51,134,41*74
$GLGSV,1,1,04,78,48,076,40,79,39,155,39,,,,41,,,,38*66
$GNGLL,2502.95815,N,12122.42219,E,065120.00,A,A*7C
$GNRMC,065121.00,A,2502.95814,N,12122.42222,E,0.028,,081020,,,A*6C
$GNVTG,,T,,M,0.028,N,0.051,K,A*33
$GNGGA,065121.00,2502.95814,N,12122.42222,E,1,09,1.06,278.8,M,16.7,M,,*4A
$GNGSA,A,3,15,18,20,23,24,12,13,,,,,,1.81,1.06,1.47*18
$GNGSA,A,3,78,79,,,,,,,,,,,1.81,1.06,1.47*10
$GPGSV,3,1,10,10,,,37,12,13,151,38,13,14,051,37,15,43,035,42*44
$GPGSV,3,2,10,18,63,259,42,20,45,328,40,23,40,329,42,24,82,092,44*7F
$GPGSV,3,3,10,41,38,242,40,50,51,134,41*74
$GLGSV,1,1,04,78,48,076,39,79,39,155,36,,,,40,,,,36*68
$GNGLL,2502.95814,N,12122.42222,E,065121.00,A,A*74
$GNRMC,065122.00,A,2502.95813,N,12122.42222,E,0.020,,081020,,,A*60
$GNVTG,,T,,M,0.020,N,0.037,K,A*3B
$GNGGA,065122.00,2502.95813,N,12122.42222,E,1,09,1.06,278.6,M,16.7,M,,*40
$GNGSA,A,3,15,18,20,23,24,12,13,,,,,,1.81,1.06,1.47*18
$GNGSA,A,3,78,79,,,,,,,,,,,1.81,1.06,1.47*10
$GPGSV,3,1,10,10,,,39,12,13,151,40,13,14,051,39,15,43,035,44*4D
$GPGSV,3,2,10,18,63,259,44,20,45,328,43,23,40,329,43,24,82,092,45*7A
$GPGSV,3,3,10,41,38,242,42,50,51,134,43*74
$GLGSV,1,1,04,78,48,076,39,79,39,155,37,,,,40,,,,37*68
$GNGLL,2502.95813,N,12122.42222,E,065122.00,A,A*70
$GNRMC,065123.00,A,2502.95811,N,12122.42223,E,0.037,,081020,,,A*64
$GNVTG,,T,,M,0.037,N,0.068,K,A*37
$GNGGA,065123.00,2502.95811,N,12122.42223,E,1,09,1.06,278.5,M,16.7,M,,*41
$GNGSA,A,3,15,18,20,23,24,12,13,,,,,,1.81,1.06,1.47*18
$GNGSA,A,3,78,79,,,,,,,,,,,1.81,1.06,1.47*10
$GPGSV,3,1,10,10,,,38,12,13,151,39,13,14,051,37,15,43,035,42*4A
$GPGSV,3,2,10,18,63,259,42,20,45,328,40,23,40,329,42,24,82,092,45*7E
$GPGSV,3,3,10,41,38,242,40,50,51,134,41*74
$GLGSV,2,1,05,77,11,031,,78,48,076,37,79,39,155,35,,,,37*50
$GLGSV,2,2,05,,,,37*64
$GNGLL,2502.95811,N,12122.42223,E,065123.00,A,A*72
$GNRMC,065124.00,A,2502.95808,N,12122.42225,E,0.032,,081020,,,A*68
$GNVTG,,T,,M,0.032,N,0.059,K,A*30
$GNGGA,065124.00,2502.95808,N,12122.42225,E,1,09,1.06,278.4,M,16.7,M,,*49
$GNGSA,A,3,15,18,20,23,24,12,13,,,,,,1.81,1.06,1.47*18
$GNGSA,A,3,78,79,,,,,,,,,,,1.81,1.06,1.47*10
$GPGSV,3,1,10,10,,,35,12,13,151,38,13,14,051,36,15,43,035,42*47
$GPGSV,3,2,10,18,63,259,42,20,45,328,41,23,40,329,42,24,82,092,44*7E
$GPGSV,3,3,10,41,38,242,40,50,51,134,41*74
$GLGSV,2,1,05,77,11,031,,78,48,076,36,79,39,155,32,,,,37*56
$GLGSV,2,2,05,,,,37*64
$GNGLL,2502.95808,N,12122.42225,E,065124.00,A,A*7B
$GNRMC,065125.00,A,2502.95806,N,12122.42225,E,0.016,,081020,,,A*61
$GNVTG,,T,,M,0.016,N,0.029,K,A*31
$GNGGA,065125.00,2502.95806,N,12122.42225,E,1,09,1.22,278.3,M,16.7,M,,*47
$GNGSA,A,3,15,18,20,23,24,12,13,,,,,,1.98,1.22,1.56*16
$GNGSA,A,3,78,79,,,,,,,,,,,1.98,1.22,1.56*1E
$GPGSV,3,1,10,10,,,34,12,13,151,37,13,14,051,34,15,43,035,42*4B
$GPGSV,3,2,10,18,63,259,41,20,45,328,40,23,40,329,41,24,82,092,43*78
$GPGSV,3,3,10,41,38,242,38,50,51,134,40*7A
$GLGSV,2,1,05,77,11,031,,78,48,076,36,79,39,155,35,,,,37*51
$GLGSV,2,2,05,,,,37*64
$GNGLL,2502.95806,N,12122.42225,E,065125.00,A,A*74
$GNRMC,065126.00,A,2502.95787,N,12122.42248,E,0.013,,081020,,,A*6A
$GNVTG,,T,,M,0.013,N,0.024,K,A*39
$GNGGA,065126.00,2502.95787,N,12122.42248,E,1,09,1.06,277.8,M,16.7,M,,*4B
$GNGSA,A,3,15,18,20,23,24,12,13,,,,,,1.81,1.06,1.47*18
$GNGSA,A,3,78,79,,,,,,,,,,,1.81,1.06,1.47*10
$GPGSV,3,1,10,10,,,34,12,13,151,39,13,14,051,36,15,43,035,43*46
$GPGSV,3,2,10,18,63,259,41,20,45,328,40,23,40,329,42,24,82,092,44*7C
$GPGSV,3,3,10,41,38,242,40,50,51,134,42*77
$GLGSV,2,1,05,77,11,031,22,78,48,076,40,79,39,155,41,,,,42*51
$GLGSV,2,2,05,,,,42*66
$GNGLL,2502.95787,N,12122.42248,E,065126.00,A,A*7A
$GNRMC,065127.00,A,2502.95788,N,12122.42254,E,0.007,,081020,,,A*6C
$GNVTG,,T,,M,0.007,N,0.014,K,A*3F
$GNGGA,065127.00,2502.95788,N,12122.42254,E,1,09,1.12,277.7,M,16.7,M,,*42
$GNGSA,A,3,15,18,20,23,24,12,13,,,,,,1.85,1.12,1.47*19
$GNGSA,A,3,78,79,,,,,,,,,,,1.85,1.12,1.47*11
$GPGSV,3,1,10,10,,,34,12,13,151,39,13,14,051,36,15,43,035,43*46
$GPGSV,3,2,10,18,63,259,41,20,45,328,41,23,40,329,42,24,82,092,44*7D
$GPGSV,3,3,10,41,38,242,40,50,51,134,41*74
$GLGSV,2,1,05,77,11,031,22,78,48,076,38,79,39,155,37,,,,40*5D
$GLGSV,2,2,05,,,,40*64
$GNGLL,2502.95788,N,12122.42254,E,065127.00,A,A*79
$GNRMC,065128.00,A,2502.95789,N,12122.42255,E,0.047,,081020,,,A*67
$GNVTG,,T,,M,0.047,N,0.087,K,A*31
$GNGGA,065128.00,2502.95789,N,12122.42255,E,1,09,1.06,277.6,M,16.7,M,,*49
$GNGSA,A,3,15,18,20,23,24,12,13,,,,,,1.81,1.06,1.47*18
$GNGSA,A,3,78,79,,,,,,,,,,,1.81,1.06,1.47*10
$GPGSV,3,1,10,10,,,32,12,13,150,37,13,14,051,35,15,43,035,41*4E
$GPGSV,3,2,10,18,63,259,40,20,45,328,39,23,40,329,40,24,82,092,43*76
$GPGSV,3,3,10,41,38,242,39,50,51,134,39*75
$GLGSV,2,1,05,77,11,031,21,78,48,076,38,79,39,155,36,,,,40*5F
$GLGSV,2,2,05,,,,40*64
$GNGLL,2502.95789,N,12122.42255,E,065128.00,A,A*76
$GNRMC,065129.00,A,2502.95791,N,12122.42253,E,0.014,,081020,,,A*6F
$GNVTG,,T,,M,0.014,N,0.026,K,A*3C
$GNGGA,065129.00,2502.95791,N,12122.42253,E,1,09,1.06,277.4,M,16.7,M,,*45
$GNGSA,A,3,15,18,20,23,24,12,13,,,,,,1.81,1.06,1.47*18
$GNGSA,A,3,78,79,,,,,,,,,,,1.81,1.06,1.47*10
$GPGSV,3,1,10,10,,,35,12,13,150,39,13,14,051,37,15,43,035,43*47
$GPGSV,3,2,10,18,63,259,41,20,45,328,41,23,40,329,41,24,82,092,44*7E
$GPGSV,3,3,10,41,38,242,39,50,51,134,40*7B
$GLGSV,2,1,05,77,11,031,21,78,48,076,35,79,39,155,32,,,,37*56
$GLGSV,2,2,05,,,,37*64
$GNGLL,2502.95791,N,12122.42253,E,065129.00,A,A*78
$GNRMC,065130.00,A,2502.95793,N,12122.42250,E,0.021,,081020,,,A*60
$GNVTG,,T,,M,0.021,N,0.038,K,A*35
$GNGGA,065130.00,2502.95793,N,12122.42250,E,1,09,1.06,277.3,M,16.7,M,,*4B
$GNGSA,A,3,15,18,20,23,24,12,13,,,,,,1.81,1.06,1.47*18
$GNGSA,A,3,78,79,,,,,,,,,,,1.81,1.06,1.47*10
$GPGSV,3,1,10,10,,,38,12,13,150,44,13,14,051,42,15,43,035,47*46
$GPGSV,3,2,10,18,63,259,46,20,45,328,45,23,40,329,46,24,82,092,49*77
$GPGSV,3,3,10,41,38,242,45,50,51,134,45*75
$GLGSV,2,1,05,77,11,031,19,78,48,076,36,79,39,155,33,,,,38*50
$GLGSV,2,2,05,,,,38*6B
$GNGLL,2502.95793,N,12122.42250,E,065130.00,A,A*71
$GNRMC,065131.00,A,2502.95798,N,12122.42248,E,0.006,,081020,,,A*66
$GNVTG,,T,,M,0.006,N,0.011,K,A*3B
$GNGGA,065131.00,2502.95798,N,12122.42248,E,1,10,0.82,277.3,M,16.7,M,,*4D
$GNGSA,A,3,15,18,20,23,24,12,13,10,,,,,1.37,0.82,1.10*1B
$GNGSA,A,3,78,79,,,,,,,,,,,1.37,0.82,1.10*12
$GPGSV,3,1,10,10,14,314,39,12,13,150,44,13,14,051,42,15,43,035,49*7A
$GPGSV,3,2,10,18,63,259,46,20,45,328,46,23,40,329,47,24,82,092,48*74
$GPGSV,3,3,10,41,38,242,45,50,51,134,46*76
$GLGSV,2,1,05,77,11,031,17,78,48,076,36,79,39,155,37,,,,36*54
$GLGSV,2,2,05,,,,36*65
$GNGLL,2502.95798,N,12122.42248,E,065131.00,A,A*72
$GNRMC,065132.00,A,2502.95802,N,12122.42248,E,0.115,,081020,,,A*6A
$GNVTG,,T,,M,0.115,N,0.213,K,A*38
$GNGGA,065132.00,2502.95802,N,12122.42248,E,1,10,0.85,277.3,M,16.7,M,,*45
$GNGSA,A,3,15,18,20,23,24,12,13,10,,,,,1.39,0.85,1.10*12
$GNGSA,A,3,78,79,,,,,,,,,,,1.39,0.85,1.10*1B
$GPGSV,3,1,10,10,14,314,33,12,13,150,39,13,14,051,36,15,43,035,42*72
$GPGSV,3,2,10,18,63,259,41,20,45,328,40,23,40,329,40,24,82,092,42*78
$GPGSV,3,3,10,41,38,242,39,50,51,134,40*7B
$GLGSV,2,1,05,77,11,031,16,78,48,076,32,79,39,155,34,,,,35*51
$GLGSV,2,2,05,,,,35*66
$GNGLL,2502.95802,N,12122.42248,E,065132.00,A,A*7D
$GNRMC,065133.00,A,2502.95806,N,12122.42249,E,0.015,,081020,,,A*6F
$GNVTG,,T,,M,0.015,N,0.028,K,A*33
$GNGGA,065133.00,2502.95806,N,12122.42249,E,1,10,0.82,277.6,M,16.7,M,,*43
$GNGSA,A,3,15,18,20,23,24,12,13,10,,,,,1.37,0.82,1.10*1B
$GNGSA,A,3,78,79,,,,,,,,,,,1.37,0.82,1.10*12
$GPGSV,3,1,10,10,14,314,37,12,13,150,41,13,14,051,39,15,43,035,45*71
$GPGSV,3,2,10,18,63,259,43,20,45,328,44,23,40,329,43,24,82,092,45*7A
$GPGSV,3,3,10,41,38,242,41,50,51,134,42*76
$GLGSV,2,1,05,77,11,031,14,78,48,076,25,79,39,155,36,,,,31*53
$GLGSV,2,2,05,,,,31*62
$GNGLL,2502.95806,N,12122.42249,E,065133.00,A,A*79
$GNRMC,065134.00,A,2502.95807,N,12122.42248,E,0.009,,081020,,,A*65
$GNVTG,,T,,M,0.009,N,0.017,K,A*32
$GNGGA,065134.00,2502.95807,N,12122.42248,E,1,10,0.85,277.8,M,16.7,M,,*4D
$GNGSA,A,3,15,18,20,23,24,12,13,10,,,,,1.39,0.85,1.10*12
$GNGSA,A,3,78,79,,,,,,,,,,,1.39,0.85,1.10*1B
$GPGSV,3,1,10,10,14,314,37,12,13,150,41,13,14,051,38,15,43,035,44*71
$GPGSV,3,2,10,18,63,259,42,20,45,328,42,23,40,329,43,24,82,090,45*7F
$GPGSV,3,3,10,41,38,242,41,50,51,134,42*76
$GLGSV,2,1,05,77,11,031,16,78,48,076,27,79,39,155,39,,,,35*58
$GLGSV,2,2,05,,,,35*66
$GNGLL,2502.95807,N,12122.42248,E,065134.00,A,A*7E
$GNRMC,065135.00,A,2502.95805,N,12122.42247,E,0.057,,081020,,,A*62
$GNVTG,,T,,M,0.057,N,0.106,K,A*38
$GNGGA,065135.00,2502.95805,N,12122.42247,E,1,10,1.10,277.8,M,16.7,M,,*4C
$GNGSA,A,3,15,18,20,23,24,12,13,10,,,,,2.01,1.10,1.68*18
$GNGSA,A,3,78,79,,,,,,,,,,,2.01,1.10,1.68*11
$GPGSV,3,1,10,10,14,314,32,12,13,150,35,13,14,051,34,15,43,035,39*71
$GPGSV,3,2,10,18,63,259,37,20,45,328,37,23,40,329,38,24,82,090,39*78
$GPGSV,3,3,10,41,38,242,36,50,51,134,37*74
$GLGSV,2,1,05,77,11,031,19,78,48,076,28,79,39,155,36,,,,32*50
$GLGSV,2,2,05,,,,32*61
$GNGLL,2502.95805,N,12122.42247,E,065135.00,A,A*72
$GNRMC,065136.00,A,2502.95803,N,12122.42243,E,0.016,,081020,,,A*66
$GNVTG,,T,,M,0.016,N,0.030,K,A*39
$GNGGA,065136.00,2502.95803,N,12122.42243,E,1,10,0.82,277.7,M,16.7,M,,*48
$GNGSA,A,3,15,18,20,23,24,12,13,10,,,,,1.37,0.82,1.10*1B
$GNGSA,A,3,78,79,,,,,,,,,,,1.37,0.82,1.10*12
$GPGSV,3,1,10,10,14,314,33,12,13,150,38,13,14,051,34,15,43,035,42*71
$GPGSV,3,2,10,18,63,259,40,20,45,328,40,23,40,329,41,24,82,090,42*7A
$GPGSV,3,3,10,41,38,242,39,50,51,134,40*7B
$GLGSV,2,1,05,77,11,031,21,78,48,076,27,79,39,155,37,,,,32*55
$GLGSV,2,2,05,,,,32*61
$GNGLL,2502.95803,N,12122.42243,E,065136.00,A,A*73
$GNRMC,065137.00,A,2502.95803,N,12122.42242,E,0.063,,081020,,,A*64
$GNVTG,,T,,M,0.063,N,0.116,K,A*3E
$GNGGA,065137.00,2502.95803,N,12122.42242,E,1,10,0.82,277.8,M,16.7,M,,*47
$GNGSA,A,3,15,18,20,23,24,12,13,10,,,,,1.37,0.82,1.10*1B
$GNGSA,A,3,78,79,,,,,,,,,,,1.37,0.82,1.10*12
$GPGSV,3,1,10,10,14,314,34,12,13,150,35,13,14,051,32,15,43,035,38*70
$GPGSV,3,2,10,18,63,259,36,20,45,328,38,23,40,329,37,24,82,090,39*79
$GPGSV,3,3,10,41,38,242,36,50,51,134,37*74
$GLGSV,2,1,05,77,11,031,21,78,48,076,28,79,39,155,33,,,,33*5F
$GLGSV,2,2,05,,,,33*60
$GNGLL,2502.95803,N,12122.42242,E,065137.00,A,A*73
$GNRMC,065138.00,A,2502.95806,N,12122.42262,E,0.030,,081020,,,A*6A
$GNVTG,,T,,M,0.030,N,0.055,K,A*3E
$GNGGA,065138.00,2502.95806,N,12122.42262,E,1,10,0.85,277.6,M,16.7,M,,*46
$GNGSA,A,3,15,18,20,23,24,12,13,10,,,,,1.39,0.85,1.10*12
$GNGSA,A,3,78,79,,,,,,,,,,,1.39,0.85,1.10*1B
$GPGSV,3,1,10,10,14,314,33,12,13,150,42,13,14,051,38,15,43,035,45*77
$GPGSV,3,2,10,18,63,259,42,20,45,328,44,23,40,329,43,24,82,090,46*7A
$GPGSV,3,3,10,41,38,242,42,50,51,134,43*74
$GLGSV,2,1,06,77,11,031,19,78,48,076,25,79,39,155,39,,,,30*53
$GLGSV,2,2,06,,,,30,,,,39*6A
$GNGLL,2502.95806,N,12122.42262,E,065138.00,A,A*7B
$GNRMC,065139.00,A,2502.95796,N,12122.42276,E,0.016,,081020,,,A*6C
$GNVTG,,T,,M,0.016,N,0.030,K,A*39
$GNGGA,065139.00,2502.95796,N,12122.42276,E,1,10,0.82,277.6,M,16.7,M,,*43
$GNGSA,A,3,15,18,20,23,24,12,13,10,,,,,1.37,0.82,1.10*1B
$GNGSA,A,3,78,79,,,,,,,,,,,1.37,0.82,1.10*12
$GPGSV,3,1,10,10,14,314,33,12,13,150,38,13,14,051,34,15,43,035,43*70
$GPGSV,3,2,10,18,63,259,40,20,45,328,40,23,40,329,41,24,82,090,43*7B
$GPGSV,3,3,10,41,38,242,39,50,51,134,39*75
$GLGSV,2,1,06,77,11,031,22,78,48,076,46,79,39,155,43,,,,48*5C
$GLGSV,2,2,06,,,,48,,,,42*69
$GNGLL,2502.95796,N,12122.42276,E,065139.00,A,A*79
$GNRMC,065140.00,A,2502.95801,N,12122.42276,E,0.016,,081020,,,A*63
$GNVTG,,T,,M,0.016,N,0.029,K,A*31
$GNGGA,065140.00,2502.95801,N,12122.42276,E,1,10,0.82,277.7,M,16.7,M,,*4D
$GNGSA,A,3,15,18,20,23,24,12,13,10,,,,,1.37,0.82,1.10*1B
$GNGSA,A,3,78,79,,,,,,,,,,,1.37,0.82,1.10*12
$GPGSV,3,1,10,10,14,314,33,12,13,150,36,13,14,051,34,15,43,035,39*73
$GPGSV,3,2,10,18,63,259,37,20,45,328,37,23,40,329,38,24,82,090,40*76
$GPGSV,3,3,10,41,38,242,37,50,51,134,37*75
$GLGSV,2,1,06,77,11,031,24,78,48,076,43,79,39,155,33,,,,44*54
$GLGSV,2,2,06,,,,44,,,,28*69
$GNGLL,2502.95801,N,12122.42276,E,065140.00,A,A*76
$GNRMC,065141.00,A,2502.95802,N,12122.42284,E,0.033,,081020,,,A*6B
$GNVTG,,T,,M,0.033,N,0.062,K,A*39
$GNGGA,065141.00,2502.95802,N,12122.42284,E,1,10,0.82,277.6,M,16.7,M,,*43
$GNGSA,A,3,15,18,20,23,24,12,13,10,,,,,1.37,0.82,1.10*1B
$GNGSA,A,3,78,79,,,,,,,,,,,1.37,0.82,1.10*12
$GPGSV,3,1,10,10,14,314,32,12,13,150,36,13,14,051,34,15,43,035,41*7D
$GPGSV,3,2,10,18,63,259,38,20,45,328,40,23,40,329,39,24,82,090,41*79
$GPGSV,3,3,10,41,38,242,38,50,51,134,38*75
$GLGSV,2,1,06,77,11,031,22,78,48,076,40,79,39,155,31,,,,41*56
$GLGSV,2,2,06,,,,41,,,,34*61
$GNGLL,2502.95802,N,12122.42284,E,065141.00,A,A*79
$GNRMC,065142.00,A,2502.95801,N,12122.42284,E,0.014,,081020,,,A*6E
$GNVTG,,T,,M,0.014,N,0.026,K,A*3C
$GNGGA,065142.00,2502.95801,N,12122.42284,E,1,10,0.82,277.4,M,16.7,M,,*41
$GNGSA,A,3,15,18,20,23,24,12,13,10,,,,,1.37,0.82,1.10*1B
$GNGSA,A,3,78,79,,,,,,,,,,,1.37,0.82,1.10*12
$GPGSV,3,1,10,10,14,314,36,12,13,150,39,13,14,051,38,15,43,035,42*79
$GPGSV,3,2,10,18,63,259,41,20,45,328,42,23,40,329,42,24,82,090,43*7B
$GPGSV,3,3,10,41,38,242,40,50,51,134,40*75
$GLGSV,2,1,06,77,11,031,23,78,48,076,43,79,39,155,35,,,,43*52
$GLGSV,2,2,06,,,,43,,,,29*6F
$GNGLL,2502.95801,N,12122.42284,E,065142.00,A,A*79
$GNRMC,065143.00,A,2502.95802,N,12122.42283,E,0.003,,081020,,,A*6D
$GNVTG,,T,,M,0.003,N,0.005,K,A*3B
$GNGGA,065143.00,2502.95802,N,12122.42283,E,1,10,0.82,277.4,M,16.7,M,,*44
$GNGSA,A,3,15,18,20,23,24,12,13,10,,,,,1.37,0.82,1.10*1B
$GNGSA,A,3,78,79,,,,,,,,,,,1.37,0.82,1.10*12
$GPGSV,3,1,10,10,14,314,36,12,13,150,40,13,14,051,38,15,43,035,44*71
$GPGSV,3,2,10,18,63,259,43,20,45,328,44,23,40,329,43,24,82,090,45*78
$GPGSV,3,3,10,41,38,242,42,50,51,134,42*75
$GLGSV,2,1,06,77,11,031,21,78,48,076,42,79,39,155,25,,,,42*51
$GLGSV,2,2,06,,,,42,,,,23*64
$GNGLL,2502.95802,N,12122.42283,E,065143.00,A,A*7C
$GNRMC,065144.00,A,2502.95803,N,12122.42281,E,0.007,,081020,,,A*6D
$GNVTG,,T,,M,0.007,N,0.013,K,A*38
$GNGGA,065144.00,2502.95803,N,12122.42281,E,1,10,0.85,277.4,M,16.7,M,,*47
$GNGSA,A,3,15,18,20,23,24,12,13,10,,,,,1.39,0.85,1.10*12
$GNGSA,A,3,78,79,,,,,,,,,,,1.39,0.85,1.10*1B
$GPGSV,3,1,10,10,14,314,34,12,13,150,36,13,14,051,35,15,43,035,40*7B
$GPGSV,3,2,10,18,63,259,39,20,45,328,39,23,40,329,39,24,82,090,41*76
$GPGSV,3,3,10,41,38,242,37,50,51,134,38*7A
$GLGSV,2,1,06,77,11,031,19,78,48,076,37,79,39,155,24,,,,38*54
$GLGSV,2,2,06,,,,38,,,,24*6E
$GNGLL,2502.95803,N,12122.42281,E,065144.00,A,A*78
$GNRMC,065145.00,A,2502.95803,N,12122.42283,E,0.003,,081020,,,A*6A
$GNVTG,,T,,M,0.003,N,0.006,K,A*38
$GNGGA,065145.00,2502.95803,N,12122.42283,E,1,10,0.85,277.4,M,16.7,M,,*44
$GNGSA,A,3,15,18,20,23,24,12,13,10,,,,,1.39,0.85,1.10*12
$GNGSA,A,3,78,79,,,,,,,,,,,1.39,0.85,1.10*1B
$GPGSV,3,1,10,10,14,314,33,12,13,150,36,13,14,051,34,15,43,035,40*7D
$GPGSV,3,2,10,18,63,259,37,20,45,328,38,23,40,329,38,24,82,090,41*78
$GPGSV,3,3,10,41,38,242,37,50,51,134,38*7A
$GLGSV,2,1,06,77,11,031,16,78,48,076,39,79,39,155,22,,,,40*5C
$GLGSV,2,2,06,,,,40,,,,24*61
$GNGLL,2502.95803,N,12122.42283,E,065145.00,A,A*7B
$GNRMC,065146.00,A,2502.95804,N,12122.42283,E,0.009,,081020,,,A*64
$GNVTG,,T,,M,0.009,N,0.017,K,A*32
$GNGGA,065146.00,2502.95804,N,12122.42283,E,1,10,0.85,277.4,M,16.7,M,,*40
$GNGSA,A,3,15,18,20,23,24,12,13,10,,,,,1.39,0.85,1.10*12
$GNGSA,A,3,78,79,,,,,,,,,,,1.39,0.85,1.10*1B
$GPGSV,3,1,10,10,14,314,33,12,13,150,35,13,14,051,34,15,43,035,40*7E
$GPGSV,3,2,10,18,63,259,38,20,45,328,38,23,40,329,39,24,82,090,41*76
$GPGSV,3,3,10,41,38,242,37,50,51,134,38*7A
$GLGSV,2,1,06,77,11,031,15,78,48,076,37,79,39,155,21,,,,38*5D
$GLGSV,2,2,06,,,,38,,,,23*69
$GNGLL,2502.95804,N,12122.42283,E,065146.00,A,A*7F
$GNRMC,065147.00,A,2502.95804,N,12122.42283,E,0.019,,081020,,,A*64
$GNVTG,,T,,M,0.019,N,0.035,K,A*33
$GNGGA,065147.00,2502.95804,N,12122.42283,E,1,10,0.85,277.5,M,16.7,M,,*40
$GNGSA,A,3,15,18,20,23,24,12,13,10,,,,,1.39,0.85,1.10*12
$GNGSA,A,3,78,79,,,,,,,,,,,1.39,0.85,1.10*1B
$GPGSV,3,1,10,10,14,314,36,12,13,150,37,13,14,051,36,15,43,035,42*79
$GPGSV,3,2,10,18,63,259,40,20,45,328,41,23,40,329,42,24,82,090,44*7E
$GPGSV,3,3,10,41,38,242,39,50,51,134,40*7B
$GLGSV,2,1,06,77,11,031,14,78,48,076,39,79,39,155,21,,,,39*53
$GLGSV,2,2,06,,,,39,,,,24*6F
$GNGLL,2502.95804,N,12122.42283,E,065147.00,A,A*7E
$GNRMC,065148.00,A,2502.95803,N,12122.42284,E,0.039,,081020,,,A*69
$GNVTG,,T,,M,0.039,N,0.072,K,A*32
$GNGGA,065148.00,2502.95803,N,12122.42284,E,1,10,0.82,277.5,M,16.7,M,,*48
$GNGSA,A,3,15,18,20,23,24,12,13,10,,,,,1.37,0.82,1.10*1B
$GNGSA,A,3,78,79,,,,,,,,,,,1.37,0.82,1.10*12
$GPGSV,3,1,10,10,14,314,36,12,13,150,38,13,14,051,37,15,43,035,43*76
$GPGSV,3,2,10,18,63,259,40,20,45,328,42,23,40,329,43,24,82,090,44*7C
$GPGSV,3,3,10,41,38,242,41,50,51,134,41*75
$GLGSV,2,1,06,77,11,031,18,78,48,076,41,79,39,155,30,,,,41*5F
$GLGSV,2,2,06,,,,41,,,,31*64
$GNGLL,2502.95803,N,12122.42284,E,065148.00,A,A*71
$GNRMC,065149.00,A,2502.95802,N,12122.42284,E,0.006,,081020,,,A*65
$GNVTG,,T,,M,0.006,N,0.011,K,A*3B
$GNGGA,065149.00,2502.95802,N,12122.42284,E,1,10,0.85,277.5,M,16.7,M,,*4F
$GNGSA,A,3,15,18,20,23,24,12,13,10,,,,,1.39,0.85,1.10*12
$GNGSA,A,3,78,79,,,,,,,,,,,1.39,0.85,1.10*1B
$GPGSV,3,1,10,10,14,314,36,12,13,150,37,13,14,051,37,15,43,035,43*79
$GPGSV,3,2,10,18,63,259,41,20,45,328,41,23,40,329,43,24,82,090,45*7F
$GPGSV,3,3,10,41,38,242,41,50,51,134,41*75
$GLGSV,2,1,06,77,11,031,19,78,48,076,42,79,39,155,30,,,,41*5D
$GLGSV,2,2,06,,,,41,,,,29*6D
$GNGLL,2502.95802,N,12122.42284,E,065149.00,A,A*71
$GNRMC,065150.00,A,2502.95802,N,12122.42284,E,0.010,,081020,,,A*6A
$GNVTG,,T,,M,0.010,N,0.019,K,A*34
$GNGGA,065150.00,2502.95802,N,12122.42284,E,1,10,0.85,277.5,M,16.7,M,,*47
$GNGSA,A,3,15,18,20,23,24,12,13,10,,,,,1.39,0.85,1.10*12
$GNGSA,A,3,78,79,,,,,,,,,,,1.39,0.85,1.10*1B
$GPGSV,3,1,10,10,14,314,35,12,13,150,36,13,14,051,36,15,43,035,42*7B
$GPGSV,3,2,10,18,63,259,38,20,45,328,40,23,40,329,40,24,82,090,42*74
$GPGSV,3,3,10,41,38,242,38,50,51,134,39*74
$GLGSV,2,1,06,77,11,031,18,78,48,076,36,79,39,155,23,,,,36*5D
$GLGSV,2,2,06,,,,36,,,,24*60
$GNGLL,2502.95802,N,12122.42284,E,065150.00,A,A*79
$GNRMC,065151.00,A,2502.95802,N,12122.42283,E,0.025,,081020,,,A*6A
$GNVTG,,T,,M,0.025,N,0.046,K,A*38
$GNGGA,065151.00,2502.95802,N,12122.42283,E,1,10,0.85,277.5,M,16.7,M,,*41
$GNGSA,A,3,15,18,20,23,24,12,13,10,,,,,1.39,0.85,1.10*12
$GNGSA,A,3,78,79,,,,,,,,,,,1.39,0.85,1.10*1B
$GPGSV,3,1,10,10,14,314,36,12,13,150,34,13,14,051,34,15,43,035,41*7B
$GPGSV,3,2,10,18,63,259,39,20,45,328,39,23,40,329,39,24,82,090,41*76
$GPGSV,3,3,10,41,38,242,39,50,51,134,40*7B
$GLGSV,2,1,06,77,11,031,,78,48,076,30,79,39,155,22,,,,31*54
$GLGSV,2,2,06,,,,31,,,,24*67
$GNGLL,2502.95802,N,12122.42283,E,065151.00,A,A*7F
$GNRMC,065152.00,A,2502.95802,N,12122.42280,E,0.039,,081020,,,A*67
$GNVTG,,T,,M,0.039,N,0.072,K,A*32
$GNGGA,065152.00,2502.95802,N,12122.42280,E,1,10,0.82,277.5,M,16.7,M,,*46
$GNGSA,A,3,15,18,20,23,24,12,13,10,,,,,1.37,0.82,1.10*1B
$GNGSA,A,3,78,79,,,,,,,,,,,1.37,0.82,1.10*12
$GPGSV,3,1,10,10,14,314,36,12,13,150,37,13,14,051,38,15,43,035,42*77
$GPGSV,3,2,10,18,63,259,41,20,45,328,41,23,40,329,42,24,82,090,44*7F
$GPGSV,3,3,10,41,38,242,39,50,51,134,40*7B
$GLGSV,2,1,06,77,11,031,,78,48,076,31,79,39,155,23,,,,36*53
$GLGSV,2,2,06,,,,36,,,,24*60
$GNGLL,2502.95802,N,12122.42280,E,065152.00,A,A*7F
$GNRMC,065153.00,A,2502.95801,N,12122.42279,E,0.075,,081020,,,A*6B
$GNVTG,,T,,M,0.075,N,0.138,K,A*35
$GNGGA,065153.00,2502.95801,N,12122.42279,E,1,10,0.82,277.5,M,16.7,M,,*42
$GNGSA,A,3,15,18,20,23,24,12,13,10,,,,,1.37,0.82,1.10*1B
$GNGSA,A,3,78,79,,,,,,,,,,,1.37,0.82,1.10*12
$GPGSV,3,1,10,10,14,314,35,12,13,150,37,13,14,051,38,15,43,035,42*74
$GPGSV,3,2,10,18,63,259,40,20,45,328,41,23,40,329,42,24,82,090,43*79
$GPGSV,3,3,10,41,38,242,40,50,51,134,40*75
$GLGSV,2,1,07,77,11,031,,78,48,076,31,79,39,155,27,82,04,188,*6C
$GLGSV,2,2,07,,,,32,,,,28,,,,30*6A
$GNGLL,2502.95801,N,12122.42279,E,065153.00,A,A*7B
$GNRMC,065154.00,A,2502.95802,N,12122.42277,E,0.036,,081020,,,A*66
$GNVTG,,T,,M,0.036,N,0.066,K,A*38
$GNGGA,065154.00,2502.95802,N,12122.42277,E,1,10,0.82,277.4,M,16.7,M,,*49
$GNGSA,A,3,15,18,20,23,24,12,13,10,,,,,1.37,0.82,1.10*1B
$GNGSA,A,3,78,79,,,,,,,,,,,1.37,0.82,1.10*12
$GPGSV,3,1,10,10,14,314,35,12,13,150,34,13,14,051,35,15,43,035,42*7A
$GPGSV,3,2,10,18,63,259,38,20,45,328,40,23,40,329,40,24,82,090,41*77
$GPGSV,3,3,10,41,38,242,37,50,51,134,39*7B
$GLGSV,2,1,07,77,11,031,,78,48,076,31,79,39,155,29,82,04,188,*62
$GLGSV,2,2,07,,,,32,,,,30,,,,30*63
$GNGLL,2502.95802,N,12122.42277,E,065154.00,A,A*71
$GNRMC,065155.00,A,2502.95800,N,12122.42270,E,0.013,,081020,,,A*65
$GNVTG,,T,,M,0.013,N,0.025,K,A*38
$GNGGA,065155.00,2502.95800,N,12122.42270,E,1,10,0.82,277.5,M,16.7,M,,*4C
$GNGSA,A,3,15,18,20,23,24,12,13,10,,,,,1.37,0.82,1.10*1B
$GNGSA,A,3,78,79,,,,,,,,,,,1.37,0.82,1.10*12
$GPGSV,3,1,10,10,14,314,36,12,13,150,38,13,14,051,38,15,43,035,45*7F
$GPGSV,3,2,10,18,63,259,42,20,45,328,44,23,40,329,44,24,82,090,46*7D
$GPGSV,3,3,10,41,38,242,43,50,51,134,43*75
$GLGSV,2,1,07,77,11,031,,78,48,076,32,79,39,155,31,82,04,188,*68
$GLGSV,2,2,07,,,,34,,,,31,,,,31*65
$GNGLL,2502.95800,N,12122.42270,E,065155.00,A,A*75
$GNRMC,065156.00,A,2502.95799,N,12122.42263,E,0.009,,081020,,,A*60
$GNVTG,,T,,M,0.009,N,0.017,K,A*32
$GNGGA,065156.00,2502.95799,N,12122.42263,E,1,10,0.82,277.6,M,16.7,M,,*41
$GNGSA,A,3,15,18,20,23,24,12,13,10,,,,,1.37,0.82,1.10*1B
$GNGSA,A,3,78,79,,,,,,,,,,,1.37,0.82,1.10*12
$GPGSV,3,1,10,10,14,314,36,12,13,150,37,13,14,051,38,15,43,035,44*71
$GPGSV,3,2,10,18,63,259,42,20,45,328,42,23,40,329,43,24,82,090,45*7F
$GPGSV,3,3,10,41,38,242,41,50,51,134,42*76
$GLGSV,2,1,07,77,10,031,,78,48,076,33,79,39,155,32,82,04,188,*6B
$GLGSV,2,2,07,,,,35,,,,33,,,,33*64
$GNGLL,2502.95799,N,12122.42263,E,065156.00,A,A*7B
$GNRMC,065157.00,A,2502.95797,N,12122.42258,E,0.014,,081020,,,A*6B
$GNVTG,,T,,M,0.014,N,0.026,K,A*3C
$GNGGA,065157.00,2502.95797,N,12122.42258,E,1,10,0.82,277.6,M,16.7,M,,*46
$GNGSA,A,3,15,18,20,23,24,12,13,10,,,,,1.37,0.82,1.10*1B
$GNGSA,A,3,78,79,,,,,,,,,,,1.37,0.82,1.10*12
$GPGSV,3,1,10,10,14,314,37,12,13,150,38,13,14,051,38,15,43,035,45*7E
$GPGSV,3,2,10,18,63,259,42,20,45,328,43,23,40,329,45,24,82,090,46*7B
$GPGSV,3,3,10,41,38,242,41,50,51,134,42*76
$GLGSV,2,1,08,77,10,031,,78,48,076,35,79,39,155,34,82,04,188,*64
$GLGSV,2,2,08,83,31,227,,,,,37,,,,35,,,,34*56
$GNGLL,2502.95797,N,12122.42258,E,065157.00,A,A*7C
$GNRMC,065158.00,A,2502.95796,N,12122.42254,E,0.009,,081020,,,A*65
$GNVTG,,T,,M,0.009,N,0.016,K,A*33
$GNGGA,065158.00,2502.95796,N,12122.42254,E,1,10,0.82,277.7,M,16.7,M,,*45
$GNGSA,A,3,15,18,20,23,24,12,13,10,,,,,1.37,0.82,1.10*1B
$GNGSA,A,3,78,79,,,,,,,,,,,1.37,0.82,1.10*12
$GPGSV,3,1,10,10,14,314,37,12,13,150,37,13,14,051,37,15,43,035,44*7F
$GPGSV,3,2,10,18,63,259,42,20,45,328,41,23,40,329,43,24,82,090,45*7C
$GPGSV,3,3,10,41,38,242,41,50,51,134,42*76
$GLGSV,2,1,08,77,10,031,,78,48,076,34,79,39,154,27,82,04,188,*66
$GLGSV,2,2,08,83,31,227,,,,,36,,,,33,,,,37*52
$GNGLL,2502.95796,N,12122.42254,E,065158.00,A,A*7E
$GNRMC,065159.00,A,2502.95793,N,12122.42252,E,0.015,,081020,,,A*6A
$GNVTG,,T,,M,0.015,N,0.028,K,A*33
$GNGGA,065159.00,2502.95793,N,12122.42252,E,1,10,0.82,277.8,M,16.7,M,,*48
$GNGSA,A,3,15,18,20,23,24,12,13,10,,,,,1.37,0.82,1.10*1B
$GNGSA,A,3,78,79,,,,,,,,,,,1.37,0.82,1.10*12
$GPGSV,3,1,10,10,14,314,39,12,13,150,37,13,14,051,39,15,43,035,46*7D
$GPGSV,3,2,10,18,63,259,43,20,45,328,45,23,40,329,45,24,82,090,46*7C
$GPGSV,3,3,10,41,38,242,44,50,51,134,43*72
$GLGSV,2,1,08,77,10,031,,78,48,076,35,79,39,154,28,82,04,188,*68
$GLGSV,2,2,08,83,31,227,,,,,39,,,,31,,,,34*5C
$GNGLL,2502.95793,N,12122.42252,E,065159.00,A,A*7C
$GNRMC,065200.00,A,2502.95796,N,12122.42249,E,0.040,,081020,,,D*6F
$GNVTG,,T,,M,0.040,N,0.073,K,D*38
$GNGGA,065200.00,2502.95796,N,12122.42249,E,2,10,0.82,277.9,M,16.7,M,,0000*4A
$GNGSA,A,3,15,18,20,23,24,12,13,10,,,,,1.37,0.82,1.10*1B
$GNGSA,A,3,78,79,,,,,,,,,,,1.37,0.82,1.10*12
$GPGSV,3,1,10,10,14,314,38,12,13,150,39,13,14,051,40,15,43,035,46*7C
$GPGSV,3,2,10,18,63,259,44,20,45,328,45,23,40,329,46,24,82,090,47*79
$GPGSV,3,3,10,41,38,242,44,50,51,134,44*75
$GLGSV,2,1,08,77,10,031,,78,48,076,34,79,39,154,26,82,04,188,*67
$GLGSV,2,2,08,83,31,227,,,,,38,,,,30,,,,35*5D
$GNGLL,2502.95796,N,12122.42249,E,065200.00,A,D*79
$GNRMC,065201.00,A,2502.95796,N,12122.42246,E,0.009,,081020,,,D*6C
$GNVTG,,T,,M,0.009,N,0.016,K,D*36
$GNGGA,065201.00,2502.95796,N,12122.42246,E,2,10,0.82,277.9,M,16.7,M,,0000*44
$GNGSA,A,3,15,18,20,23,24,12,13,10,,,,,1.37,0.82,1.10*1B
$GNGSA,A,3,78,79,,,,,,,,,,,1.37,0.82,1.10*12
$GPGSV,3,1,10,10,14,314,37,12,13,150,38,13,14,051,39,15,43,035,44*7E
$GPGSV,3,2,10,18,63,259,42,20,45,328,44,23,40,329,44,24,82,090,45*7E
$GPGSV,3,3,10,41,38,242,42,50,51,134,42*75
$GLGSV,3,1,09,77,10,031,,78,48,076,33,79,39,154,28,82,04,188,*6E
$GLGSV,3,2,09,83,31,227,,84,29,297,,,,,36,,,,34*6A
$GLGSV,3,3,09,,,,36*69
$GNGLL,2502.95796,N,12122.42246,E,065201.00,A,D*77
$GNRMC,065202.00,A,2502.95797,N,12122.42243,E,0.012,,081020,,,D*61
$GNVTG,,T,,M,0.012,N,0.022,K,D*3B
$GNGGA,065202.00,2502.95797,N,12122.42243,E,2,10,0.82,277.9,M,16.7,M,,0000*43
$GNGSA,A,3,15,18,20,23,24,12,13,10,,,,,1.37,0.82,1.10*1B
$GNGSA,A,3,78,79,,,,,,,,,,,1.37,0.82,1.10*12
$GPGSV,3,1,10,10,14,314,36,12,13,150,37,13,14,051,36,15,43,035,44*7F
$GPGSV,3,2,10,18,63,259,40,20,45,328,43,23,40,329,43,24,82,090,44*7D
$GPGSV,3,3,10,41,38,242,41,50,51,134,42*76
$GLGSV,3,1,09,77,10,031,,78,48,076,32,79,39,154,28,82,04,188,*6F
$GLGSV,3,2,09,83,31,227,,84,29,297,,,,,34,,,,32*6E
$GLGSV,3,3,09,,,,34*6B
$GNGLL,2502.95797,N,12122.42243,E,065202.00,A,D*70
$GNRMC,065203.00,A,2502.95797,N,12122.42241,E,0.016,,081020,,,D*66
$GNVTG,,T,,M,0.016,N,0.030,K,D*3C
$GNGGA,065203.00,2502.95797,N,12122.42241,E,2,10,0.82,277.9,M,16.7,M,,0000*40
$GNGSA,A,3,15,18,20,23,24,12,13,10,,,,,1.37,0.82,1.10*1B
$GNGSA,A,3,78,79,,,,,,,,,,,1.37,0.82,1.10*12
$GPGSV,3,1,10,10,14,314,36,12,13,150,38,13,14,051,37,15,43,035,44*71
$GPGSV,3,2,10,18,63,259,43,20,45,328,43,23,40,329,44,24,82,090,44*79
$GPGSV,3,3,10,41,38,242,41,50,51,134,42*76
$GLGSV,3,1,09,77,10,031,,78,48,076,32,79,39,154,28,82,04,188,*6F
$GLGSV,3,2,09,83,31,227,,84,29,297,,,,,33,,,,31*6A
$GLGSV,3,3,09,,,,33*6C
$GNGLL,2502.95797,N,12122.42241,E,065203.00,A,D*73
$GNRMC,065204.00,A,2502.95797,N,12122.42238,E,0.014,,081020,,,D*6D
$GNVTG,,T,,M,0.014,N,0.025,K,D*3A
$GNGGA,065204.00,2502.95797,N,12122.42238,E,2,10,0.82,277.8,M,16.7,M,,0000*48
$GNGSA,A,3,15,18,20,23,24,12,13,10,,,,,1.37,0.82,1.10*1B
$GNGSA,A,3,78,79,,,,,,,,,,,1.37,0.82,1.10*12
$GPGSV,3,1,10,10,14,314,37,12,13,150,38,13,14,051,38,15,43,035,46*7D
$GPGSV,3,2,10,18,63,259,42,20,45,328,45,23,40,329,45,24,82,090,46*7D
$GPGSV,3,3,10,41,38,242,41,50,51,134,43*77
$GLGSV,3,1,09,77,10,031,,78,48,076,32,79,39,154,29,82,04,188,*6E
$GLGSV,3,2,09,83,31,227,,84,29,297,,,,,32,,,,32*68
$GLGSV,3,3,09,,,,32*6D
$GNGLL,2502.95797,N,12122.42238,E,065204.00,A,D*7A
$GNRMC,065205.00,A,2502.95798,N,12122.42236,E,0.015,,081020,,,D*6C
$GNVTG,,T,,M,0.015,N,0.027,K,D*39
$GNGGA,065205.00,2502.95798,N,12122.42236,E,2,10,0.82,277.8,M,16.7,M,,0000*48
$GNGSA,A,3,15,18,20,23,24,12,13,10,,,,,1.37,0.82,1.10*1B
$GNGSA,A,3,78,79,,,,,,,,,,,1.37,0.82,1.10*12
$GPGSV,3,1,10,10,14,315,39,12,13,150,40,13,14,051,40,15,43,035,45*71
$GPGSV,3,2,10,18,63,259,43,20,45,328,44,23,40,329,45,24,82,090,46*7D
$GPGSV,3,3,10,41,38,242,43,50,51,134,43*75
$GLGSV,3,1,09,77,10,031,,78,48,076,32,79,39,154,30,82,04,188,*66
$GLGSV,3,2,09,83,31,227,,84,29,297,22,,,,32,,,,32*68
$GLGSV,3,3,09,,,,32*6D
$GNGLL,2502.95798,N,12122.42236,E,065205.00,A,D*7A
$GNRMC,065206.00,A,2502.95798,N,12122.42235,E,0.011,,081020,,,D*68
$GNVTG,,T,,M,0.011,N,0.021,K,D*3B
$GNGGA,065206.00,2502.95798,N,12122.42235,E,2,10,0.82,277.7,M,16.7,M,,0000*47
$GNGSA,A,3,15,18,20,23,24,12,13,10,,,,,1.37,0.82,1.10*1B
$GNGSA,A,3,78,79,,,,,,,,,,,1.37,0.82,1.10*12
$GPGSV,3,1,10,10,14,315,38,12,13,150,38,13,14,051,38,15,43,035,45*70
$GPGSV,3,2,10,18,63,259,42,20,45,328,45,23,40,329,45,24,82,090,46*7D
$GPGSV,3,3,10,41,38,242,42,50,51,134,43*74
$GLGSV,3,1,09,77,10,031,,78,48,076,32,79,39,154,30,82,04,188,*66
$GLGSV,3,2,09,83,31,227,,84,29,297,22,,,,35,,,,33*6E
$GLGSV,3,3,09,,,,35*6A
$GNGLL,2502.95798,N,12122.42235,E,065206.00,A,D*7A
$GNRMC,065207.00,A,2502.95797,N,12122.42233,E,0.021,,081020,,,D*63
$GNVTG,,T,,M,0.021,N,0.040,K,D*3F
$GNGGA,065207.00,2502.95797,N,12122.42233,E,2,10,0.82,277.6,M,16.7,M,,0000*4E
$GNGSA,A,3,15,18,20,23,24,12,13,10,,,,,1.37,0.82,1.10*1B
$GNGSA,A,3,78,79,,,,,,,,,,,1.37,0.82,1.10*12
$GPGSV,3,1,10,10,14,315,35,12,13,150,36,13,13,051,36,15,43,035,43*7C
$GPGSV,3,2,10,18,63,259,41,20,45,328,42,23,40,329,43,24,82,090,44*7D
$GPGSV,3,3,10,41,38,242,39,50,51,134,40*7B
$GLGSV,3,1,09,77,10,031,,78,48,076,32,79,39,154,30,82,04,188,*66
$GLGSV,3,2,09,83,31,227,,84,29,297,21,,,,34,,,,33*6C
$GLGSV,3,3,09,,,,34*6B
$GNGLL,2502.95797,N,12122.42233,E,065207.00,A,D*72
$GNRMC,065208.00,A,2502.95798,N,12122.42232,E,0.068,,081020,,,D*6F
$GNVTG,,T,,M,0.068,N,0.126,K,D*33
$GNGGA,065208.00,2502.95798,N,12122.42232,E,2,10,0.82,277.6,M,16.7,M,,0000*4F
$GNGSA,A,3,15,18,20,23,24,12,13,10,,,,,1.37,0.82,1.10*1B
$GNGSA,A,3,78,79,,,,,,,,,,,1.37,0.82,1.10*12
$GPGSV,3,1,10,10,14,315,39,12,13,150,41,13,13,051,39,15,43,035,47*7B
$GPGSV,3,2,10,18,63,259,45,20,45,328,45,23,40,329,46,24,82,090,47*78
$GPGSV,3,3,10,41,38,242,43,50,51,134,45*73
$GLGSV,3,1,09,77,10,031,,78,48,076,34,79,39,154,31,82,04,188,*61
$GLGSV,3,2,09,83,31,227,,84,29,297,22,,,,37,,,,32*6D
$GLGSV,3,3,09,,,,37*68
$GNGLL,2502.95798,N,12122.42232,E,065208.00,A,D*73
$GNRMC,065209.00,A,2502.95797,N,12122.42228,E,0.025,,081020,,,D*63
$GNVTG,,T,,M,0.025,N,0.046,K,D*3D
$GNGGA,065209.00,2502.95797,N,12122.42228,E,2,11,0.80,277.6,M,16.7,M,,0000*49
$GNGSA,A,3,15,18,20,23,24,12,13,10,,,,,1.36,0.80,1.10*18
$GNGSA,A,3,78,79,68,,,,,,,,,,1.36,0.80,1.10*1F
$GPGSV,3,1,10,10,14,315,36,12,13,150,37,13,13,051,37,15,43,035,43*7F
$GPGSV,3,2,10,18,62,258,41,20,45,328,42,23,40,329,43,24,82,090,44*7D
$GPGSV,3,3,10,41,38,242,40,50,51,134,42*77
$GLGSV,2,1,08,68,39,022,32,77,10,031,,78,48,076,35,79,39,154,31*6A
$GLGSV,2,2,08,82,04,188,,83,31,227,,84,29,297,22,,,,32*56
$GNGLL,2502.95797,N,12122.42228,E,065209.00,A,D*76
$GNRMC,065210.00,A,2502.95797,N,12122.42223,E,0.009,,081020,,,D*6E
$GNVTG,,T,,M,0.009,N,0.016,K,D*36
$GNGGA,065210.00,2502.95797,N,12122.42223,E,2,11,0.80,277.6,M,16.7,M,,0000*4A
$GNGSA,A,3,15,18,20,23,24,12,13,10,,,,,1.36,0.80,1.10*18
$GNGSA,A,3,78,79,68,,,,,,,,,,1.36,0.80,1.10*1F
$GPGSV,3,1,10,10,14,315,37,12,13,150,37,13,13,051,37,15,43,035,45*78
$GPGSV,3,2,10,18,62,258,42,20,45,328,43,23,40,329,44,24,82,090,46*7A
$GPGSV,3,3,10,41,38,242,42,50,51,134,42*75
$GLGSV,2,1,08,68,39,022,32,77,10,031,,78,48,076,36,79,39,154,31*69
$GLGSV,2,2,08,82,04,188,,83,31,227,,84,29,297,21,,,,32*55
$GNGLL,2502.95797,N,12122.42223,E,065210.00,A,D*75
$GNRMC,065211.00,A,2502.95797,N,12122.42219,E,0.024,,081020,,,D*69
$GNVTG,,T,,M,0.024,N,0.045,K,D*3F
$GNGGA,065211.00,2502.95797,N,12122.42219,E,2,11,0.80,277.6,M,16.7,M,,0000*42
$GNGSA,A,3,15,18,20,23,24,12,13,10,,,,,1.36,0.80,1.10*18
$GNGSA,A,3,78,79,68,,,,,,,,,,1.36,0.80,1.10*1F
$GPGSV,3,1,10,10,14,315,36,12,13,150,36,13,13,051,36,15,43,035,42*7E
$GPGSV,3,2,10,18,62,258,40,20,45,329,41,23,40,329,41,24,82,090,43*7B
$GPGSV,3,3,10,41,38,242,39,50,51,134,40*7B
$GLGSV,2,1,08,68,39,022,33,77,10,031,,78,48,076,35,79,39,154,32*68
$GLGSV,2,2,08,82,04,188,,83,31,227,,84,29,297,22,,,,32*56
$GNGLL,2502.95797,N,12122.42219,E,065211.00,A,D*7D
$GNRMC,065212.00,A,2502.95797,N,12122.42217,E,0.024,,081020,,,D*64
$GNVTG,,T,,M,0.024,N,0.045,K,D*3F
$GNGGA,065212.00,2502.95797,N,12122.42217,E,2,11,0.80,277.6,M,16.7,M,,0000*4F
$GNGSA,A,3,15,18,20,23,24,12,13,10,,,,,1.36,0.80,1.10*18
$GNGSA,A,3,78,79,68,,,,,,,,,,1.36,0.80,1.10*1F
$GPGSV,3,1,10,10,14,315,35,12,13,150,35,13,13,051,36,15,43,035,42*7E
$GPGSV,3,2,10,18,62,258,39,20,45,329,41,23,41,329,42,24,82,090,43*77
$GPGSV,3,3,10,41,38,242,39,50,51,134,40*7B
$GLGSV,2,1,08,68,39,022,32,77,10,031,,78,48,076,34,79,39,154,31*6B
$GLGSV,2,2,08,82,04,188,,83,31,227,,84,29,297,22,,,,31*55
$GNGLL,2502.95797,N,12122.42217,E,065212.00,A,D*70
$GNRMC,065213.00,A,2502.95798,N,12122.42213,E,0.011,,081020,,,D*68
$GNVTG,,T,,M,0.011,N,0.020,K,D*3A
$GNGGA,065213.00,2502.95798,N,12122.42213,E,2,11,0.80,277.5,M,16.7,M,,0000*46
$GNGSA,A,3,15,18,20,23,24,12,13,10,,,,,1.36,0.80,1.10*18
$GNGSA,A,3,78,79,68,,,,,,,,,,1.36,0.80,1.10*1F
$GPGSV,3,1,10,10,14,315,35,12,13,150,35,13,13,051,35,15,43,035,42*7D
$GPGSV,3,2,10,18,62,258,39,20,45,329,40,23,41,329,41,24,82,088,43*7C
$GPGSV,3,3,10,41,38,242,39,50,51,134,40*7B
$GLGSV,2,1,08,68,39,022,32,77,10,031,,78,48,076,35,79,39,154,32*69
$GLGSV,2,2,08,82,04,188,,83,31,227,,84,29,297,21,,,,31*56
$GNGLL,2502.95798,N,12122.42213,E,065213.00,A,D*7A
$GNRMC,065214.00,A,2502.95799,N,12122.42209,E,0.010,,081020,,,D*64
$GNVTG,,T,,M,0.010,N,0.019,K,D*31
$GNGGA,065214.00,2502.95799,N,12122.42209,E,2,11,0.80,277.6,M,16.7,M,,0000*48
$GNGSA,A,3,15,18,20,23,24,12,13,10,,,,,1.36,0.80,1.10*18
$GNGSA,A,3,78,79,68,,,,,,,,,,1.36,0.80,1.10*1F
$GPGSV,3,1,10,10,14,315,36,12,13,150,36,13,13,051,36,15,43,035,44*78
$GPGSV,3,2,10,18,62,258,41,20,45,329,42,23,41,329,43,24,82,088,44*74
$GPGSV,3,3,10,41,38,242,41,50,51,134,42*76
$GLGSV,2,1,08,68,39,022,32,77,10,031,,78,48,076,35,79,39,154,32*69
$GLGSV,2,2,08,82,04,188,,83,31,227,,84,29,297,21,,,,31*56
$GNGLL,2502.95799,N,12122.42209,E,065214.00,A,D*77
$GNRMC,065215.00,A,2502.95802,N,12122.42205,E,0.022,,081020,,,D*65
$GNVTG,,T,,M,0.022,N,0.041,K,D*3D
$GNGGA,065215.00,2502.95802,N,12122.42205,E,2,11,0.80,277.6,M,16.7,M,,0000*48
$GNGSA,A,3,15,18,20,23,24,12,13,10,,,,,1.36,0.80,1.10*18
$GNGSA,A,3,78,79,68,,,,,,,,,,1.36,0.80,1.10*1F
$GPGSV,3,1,10,10,14,315,37,12,13,150,36,13,13,051,37,15,43,035,44*78
$GPGSV,3,2,10,18,62,258,40,20,45,329,42,23,41,329,43,24,82,088,44*75
$GPGSV,3,3,10,41,38,242,41,50,51,134,42*76
$GLGSV,2,1,08,68,39,022,32,77,10,031,,78,48,076,35,79,39,154,32*69
$GLGSV,2,2,08,82,04,188,,83,31,227,,84,29,297,20,,,,31*57
$GNGLL,2502.95802,N,12122.42205,E,065215.00,A,D*77
$GNRMC,065216.00,A,2502.95803,N,12122.42201,E,0.011,,081020,,,D*63
$GNVTG,,T,,M,0.011,N,0.021,K,D*3B
$GNGGA,065216.00,2502.95803,N,12122.42201,E,2,11,0.80,277.6,M,16.7,M,,0000*4E
$GNGSA,A,3,15,18,20,23,24,12,13,10,,,,,1.36,0.80,1.10*18
$GNGSA,A,3,78,79,68,,,,,,,,,,1.36,0.80,1.10*1F
$GPGSV,3,1,10,10,14,315,37,12,13,150,36,13,13,051,36,15,43,035,43*7E
$GPGSV,3,2,10,18,62,258,40,20,45,329,42,23,41,329,42,24,82,088,44*74
$GPGSV,3,3,10,41,38,242,41,50,51,134,42*76
$GLGSV,2,1,08,68,39,022,33,77,10,031,,78,48,076,35,79,39,154,33*69
$GLGSV,2,2,08,82,04,188,,83,31,227,,84,29,297,20,,,,31*57
$GNGLL,2502.95803,N,12122.42201,E,065216.00,A,D*71
$GNRMC,065217.00,A,2502.95804,N,12122.42196,E,0.014,,081020,,,D*6D
$GNVTG,,T,,M,0.014,N,0.025,K,D*3A
$GNGGA,065217.00,2502.95804,N,12122.42196,E,2,11,0.80,277.6,M,16.7,M,,0000*45
$GNGSA,A,3,15,18,20,23,24,12,13,10,,,,,1.36,0.80,1.10*18
$GNGSA,A,3,78,79,68,,,,,,,,,,1.36,0.80,1.10*1F
$GPGSV,3,1,10,10,14,315,37,12,13,150,36,13,13,051,37,15,43,035,44*78
$GPGSV,3,2,10,18,62,258,41,20,45,329,43,23,41,329,43,24,82,088,45*74
$GPGSV,3,3,10,41,38,242,41,50,51,134,41*75
$GLGSV,2,1,08,68,39,022,33,77,10,031,,78,48,076,35,79,39,154,33*69
$GLGSV,2,2,08,82,04,188,,83,31,227,,84,29,297,21,,,,32*55
$GNGLL,2502.95804,N,12122.42196,E,065217.00,A,D*7A
$GNRMC,065218.00,A,2502.95805,N,12122.42194,E,0.016,,081020,,,D*63
$GNVTG,,T,,M,0.016,N,0.030,K,D*3C
$GNGGA,065218.00,2502.95805,N,12122.42194,E,2,11,0.82,277.6,M,16.7,M,,0000*4B
$GNGSA,A,3,15,18,20,23,24,12,13,10,,,,,1.37,0.82,1.10*1B
$GNGSA,A,3,78,79,68,,,,,,,,,,1.37,0.82,1.10*1C
$GPGSV,3,1,10,10,14,315,36,12,13,150,35,13,13,051,36,15,43,035,42*7D
$GPGSV,3,2,10,18,62,258,39,20,45,329,42,23,41,329,42,24,82,088,44*7A
$GPGSV,3,3,10,41,38,242,39,50,51,134,40*7B
$GLGSV,2,1,08,68,39,022,32,77,10,031,,78,48,076,35,79,39,154,33*68
$GLGSV,2,2,08,82,04,188,,83,31,227,,84,29,297,21,,,,31*56
$GNGLL,2502.95805,N,12122.42194,E,065218.00,A,D*76
$GNRMC,065219.00,A,2502.95807,N,12122.42192,E,0.001,,081020,,,D*60
$GNVTG,,T,,M,0.001,N,0.001,K,D*38
$GNGGA,065219.00,2502.95807,N,12122.42192,E,2,11,0.80,277.6,M,16.7,M,,0000*4C
$GNGSA,A,3,15,18,20,23,24,12,13,10,,,,,1.36,0.80,1.10*18
$GNGSA,A,3,78,79,68,,,,,,,,,,1.36,0.80,1.10*1F
$GPGSV,3,1,10,10,14,315,36,12,13,150,35,13,13,051,35,15,43,035,41*7D
$GPGSV,3,2,10,18,62,258,38,20,45,329,40,23,41,329,42,24,82,088,44*79
$GPGSV,3,3,10,41,38,242,39,50,51,134,40*7B
$GLGSV,2,1,08,68,39,022,33,77,10,031,,78,48,076,32,79,39,154,33*6E
$GLGSV,2,2,08,82,04,188,,83,31,227,,84,29,297,22,,,,32*56
$GNGLL,2502.95807,N,12122.42192,E,065219.00,A,D*73
$GNRMC,065220.00,A,2502.95807,N,12122.42186,E,0.007,,081020,,,D*69
$GNVTG,,T,,M,0.007,N,0.014,K,D*3A
$GNGGA,065220.00,2502.95807,N,12122.42186,E,2,11,0.80,277.6,M,16.7,M,,0000*43
$GNGSA,A,3,15,18,20,23,24,12,13,10,,,,,1.36,0.80,1.10*18
$GNGSA,A,3,78,79,68,,,,,,,,,,1.36,0.80,1.10*1F
$GPGSV,3,1,10,10,14,315,35,12,13,150,35,13,13,051,36,15,43,035,44*78
$GPGSV,3,2,10,18,62,258,42,20,45,329,43,23,41,329,43,24,82,088,46*74
$GPGSV,3,3,10,41,38,242,41,50,51,134,42*76
$GLGSV,2,1,08,68,39,022,33,77,10,031,,78,48,076,34,79,39,154,32*69
$GLGSV,2,2,08,82,04,188,,83,31,227,,84,29,297,22,,,,31*55
$GNGLL,2502.95807,N,12122.42186,E,065220.00,A,D*7C
$GNRMC,065221.00,A,2502.95806,N,12122.42182,E,0.011,,081020,,,D*6A
$GNVTG,,T,,M,0.011,N,0.020,K,D*3A
$GNGGA,065221.00,2502.95806,N,12122.42182,E,2,11,0.80,277.6,M,16.7,M,,0000*47
$GNGSA,A,3,15,18,20,23,24,12,13,10,,,,,1.36,0.80,1.10*18
$GNGSA,A,3,78,79,68,,,,,,,,,,1.36,0.80,1.10*1F
$GPGSV,3,1,10,10,14,315,39,12,13,150,39,13,13,051,41,15,43,035,47*7B
$GPGSV,3,2,10,18,62,258,44,20,45,329,46,23,41,329,47,24,82,088,49*7C
$GPGSV,3,3,10,41,38,242,45,50,51,134,45*75
$GLGSV,2,1,08,68,39,022,34,77,10,031,,78,48,076,36,79,39,154,33*6D
$GLGSV,2,2,08,82,04,188,,83,31,227,,84,29,297,21,,,,32*55
$GNGLL,2502.95806,N,12122.42182,E,065221.00,A,D*78
$GNRMC,065222.00,A,2502.95808,N,12122.42181,E,0.049,,081020,,,D*69
$GNVTG,,T,,M,0.049,N,0.091,K,D*3D
$GNGGA,065222.00,2502.95808,N,12122.42181,E,2,11,0.80,277.6,M,16.7,M,,0000*49
$GNGSA,A,3,15,18,20,23,24,12,13,10,,,,,1.36,0.80,1.10*18
$GNGSA,A,3,78,79,68,,,,,,,,,,1.36,0.80,1.10*1F
$GPGSV,3,1,10,10,14,315,37,12,13,150,36,13,13,051,38,15,43,035,44*77
$GPGSV,3,2,10,18,62,258,40,20,45,329,43,23,41,329,44,24,82,088,46*71
$GPGSV,3,3,10,41,38,242,42,50,51,134,41*76
$GLGSV,2,1,08,68,39,022,33,77,10,031,,78,48,076,36,79,39,154,34*6D
$GLGSV,2,2,08,82,04,188,,83,31,227,,84,29,297,22,,,,33*57
$GNGLL,2502.95808,N,12122.42181,E,065222.00,A,D*76
$GNRMC,065223.00,A,2502.95807,N,12122.42177,E,0.027,,081020,,,D*66
$GNVTG,,T,,M,0.027,N,0.050,K,D*38
$GNGGA,065223.00,2502.95807,N,12122.42177,E,2,11,0.80,277.6,M,16.7,M,,0000*4E
$GNGSA,A,3,15,18,20,23,24,12,13,10,,,,,1.36,0.80,1.10*18
$GNGSA,A,3,78,79,68,,,,,,,,,,1.36,0.80,1.10*1F
$GPGSV,3,1,10,10,14,315,36,12,13,150,36,13,13,051,38,15,43,035,44*76
$GPGSV,3,2,10,18,62,258,42,20,45,329,43,23,41,329,43,24,82,088,46*74
$GPGSV,3,3,10,41,38,242,42,50,51,134,43*74
$GLGSV,2,1,08,68,39,022,34,77,10,031,,78,48,076,35,79,39,154,37*6A
$GLGSV,2,2,08,82,04,188,,83,31,227,,84,29,297,23,,,,36*53
$GNGLL,2502.95807,N,12122.42177,E,065223.00,A,D*71
$GNRMC,065301.31,V,,,,,,,081020,,,N*6B
$GNVTG,,,,,,,,,N*2E
$GNGGA,065301.31,,,,,0,00,99.99,,,,,,*7B
$GNGSA,A,1,,,,,,,,,,,,,99.99,99.99,99.99*2E
$GNGSA,A,1,,,,,,,,,,,,,99.99,99.99,99.99*2E
$GPGSV,3,1,10,10,15,315,,12,14,150,,13,13,051,,15,42,036,*79
$GPGSV,3,2,10,18,62,257,,20,46,329,,23,41,330,,24,81,085,*7A
$GPGSV,3,3,10,41,38,242,,50,60,167,*71
$GLGSV,3,1,09,67,15,074,,68,39,023,,69,26,321,,77,10,031,*65
$GLGSV,3,2,09,78,48,075,,79,40,154,,82,04,188,,83,31,226,*66
$GLGSV,3,3,09,84,29,296,*56
$GNGLL,,,,,065301.31,V,N*57
$GNRMC,065302.00,A,2502.95967,N,12122.42062,E,1.061,,081020,,,A*60
$GNVTG,,T,,M,1.061,N,1.965,K,A*30
$GNGGA,065302.00,2502.95967,N,12122.42062,E,1,12,0.76,288.0,M,16.7,M,,*41
$GNGSA,A,3,24,18,20,15,23,10,12,13,,,,,1.32,0.76,1.07*13
$GNGSA,A,3,78,79,68,69,,,,,,,,,1.32,0.76,1.07*1B
$GPGSV,3,1,10,10,15,315,38,12,14,150,40,13,13,051,36,15,42,036,43*74
$GPGSV,3,2,10,18,62,257,40,20,46,329,43,23,41,330,42,24,81,085,45*7E
$GPGSV,3,3,10,41,38,242,41,50,60,167,42*72
$GLGSV,3,1,09,67,15,074,32,68,39,023,43,69,26,321,45,77,10,031,24*64
$GLGSV,3,2,09,78,48,075,42,79,40,154,45,82,04,188,27,83,31,226,37*60
$GLGSV,3,3,09,84,29,296,35*50
$GNGLL,2502.95967,N,12122.42062,E,065302.00,A,A*74
$GNTXT,01,01,02,ANTSTATUS=INIT*3B
$GNRMC,065303.00,A,2502.95878,N,12122.42035,E,0.175,,081020,,,A*69
$GNVTG,,T,,M,0.175,N,0.324,K,A*3B
$GNGGA,065303.00,2502.95878,N,12122.42035,E,1,12,0.76,290.6,M,16.7,M,,*42
$GNGSA,A,3,24,18,20,15,23,10,12,13,,,,,1.32,0.76,1.07*13
$GNGSA,A,3,78,79,68,69,,,,,,,,,1.32,0.76,1.07*1B
$GPGSV,3,1,11,10,15,315,37,12,14,150,37,13,13,051,33,15,42,036,42*7E
$GPGSV,3,2,11,18,62,257,38,20,46,329,41,23,41,330,41,24,81,085,43*77
$GPGSV,3,3,11,32,,,33,41,38,242,39,50,60,167,39*71
$GLGSV,3,1,10,67,15,074,32,68,39,023,44,69,26,321,47,77,10,031,*6F
$GLGSV,3,2,10,78,48,075,42,79,40,154,47,82,04,188,26,83,31,226,37*6B
$GLGSV,3,3,10,84,29,296,35,,,,45*59
$GNGLL,2502.95878,N,12122.42035,E,065303.00,A,A*78
$GNTXT,01,01,02,ANTSTATUS=OK*25
$GNRMC,065304.00,A,2502.95874,N,12122.42159,E,0.021,,081020,,,A*69
$GNVTG,,T,,M,0.021,N,0.040,K,A*3A
$GNGGA,065304.00,2502.95874,N,12122.42159,E,1,12,0.76,285.7,M,16.7,M,,*47
$GNGSA,A,3,24,18,20,15,23,10,12,13,,,,,1.32,0.76,1.07*13
$GNGSA,A,3,78,79,68,69,,,,,,,,,1.32,0.76,1.07*1B
$GPGSV,3,1,11,10,15,315,40,12,14,150,40,13,13,051,37,15,42,036,43*7B
$GPGSV,3,2,11,18,62,257,41,20,46,329,43,23,41,330,43,24,81,085,45*7F
$GPGSV,3,3,11,32,,,38,41,38,242,41,50,60,167,42*79
$GLGSV,3,1,10,67,15,074,34,68,39,023,44,69,26,321,45,77,10,031,21*68
$GLGSV,3,2,10,78,48,075,41,79,40,154,45,82,04,188,27,83,31,226,36*6A
$GLGSV,3,3,10,84,29,296,34,,,,44*59
$GNGLL,2502.95874,N,12122.42159,E,065304.00,A,A*78
$GNRMC,065305.00,A,2502.95792,N,12122.42125,E,0.010,,081020,,,A*66
$GNVTG,,T,,M,0.010,N,0.019,K,A*34
$GNGGA,065305.00,2502.95792,N,12122.42125,E,1,12,0.76,284.1,M,16.7,M,,*4D
$GNGSA,A,3,24,18,20,15,23,10,12,13,,,,,1.32,0.76,1.07*13
$GNGSA,A,3,78,79,68,69,,,,,,,,,1.32,0.76,1.07*1B
$GPGSV,3,1,11,10,15,315,40,12,14,150,42,13,13,051,36,15,42,036,44*7F
$GPGSV,3,2,11,18,62,257,42,20,46,329,44,23,41,330,44,24,81,085,46*7F
$GPGSV,3,3,11,32,,,37,41,38,242,42,50,60,167,43*74
$GLGSV,3,1,10,67,15,074,34,68,39,023,46,69,26,321,44,77,10,031,18*61
$GLGSV,3,2,10,78,48,075,38,79,40,154,43,82,04,188,24,83,31,226,35*62
$GLGSV,3,3,10,84,29,296,33,,,,39*54
$GNGLL,2502.95792,N,12122.42125,E,065305.00,A,A*75
$GNRMC,065306.00,A,2502.95782,N,12122.42089,E,0.022,,081020,,,A*62
$GNVTG,,T,,M,0.022,N,0.041,K,A*38
$GNGGA,065306.00,2502.95782,N,12122.42089,E,1,12,0.76,284.3,M,16.7,M,,*4A
$GNGSA,A,3,24,18,20,15,23,10,12,13,,,,,1.32,0.76,1.07*13
$GNGSA,A,3,78,79,68,69,,,,,,,,,1.32,0.76,1.07*1B
$GPGSV,3,1,11,10,15,315,38,12,14,150,40,13,13,051,34,15,42,036,42*76
$GPGSV,3,2,11,18,62,257,40,20,46,329,42,23,41,330,42,24,81,085,44*7F
$GPGSV,3,3,11,32,,,35,41,38,242,40,50,60,167,41*76
$GLGSV,3,1,10,67,15,074,33,68,39,023,45,69,26,321,45,77,10,031,17*6B
$GLGSV,3,2,10,78,48,075,39,79,40,154,46,82,04,188,24,83,31,226,36*65
$GLGSV,3,3,10,84,29,296,34,,,,41*5C
$GNGLL,2502.95782,N,12122.42089,E,065306.00,A,A*70
$GNRMC,065307.00,A,2502.95786,N,12122.42074,E,0.016,,081020,,,A*62
$GNVTG,,T,,M,0.016,N,0.029,K,A*31
$GNGGA,065307.00,2502.95786,N,12122.42074,E,1,12,0.76,284.5,M,16.7,M,,*4B
$GNGSA,A,3,24,18,20,15,23,10,12,13,,,,,1.32,0.76,1.07*13
$GNGSA,A,3,78,79,68,69,,,,,,,,,1.32,0.76,1.07*1B
$GPGSV,3,1,11,10,15,315,38,12,14,150,38,13,13,051,36,15,42,036,42*7B
$GPGSV,3,2,11,18,62,257,39,20,46,329,41,23,41,330,41,24,81,085,43*76
$GPGSV,3,3,11,32,,,36,41,38,242,40,50,60,167,40*74
$GLGSV,3,1,10,67,15,074,32,68,39,023,43,69,26,321,42,77,10,031,15*69
$GLGSV,3,2,10,78,48,075,37,79,40,154,43,82,04,188,23,83,31,226,34*6B
$GLGSV,3,3,10,84,29,296,33,,,,40*5A
$GNGLL,2502.95786,N,12122.42074,E,065307.00,A,A*77
$GNRMC,065308.00,A,2502.95785,N,12122.42077,E,0.014,,081020,,,A*6F
$GNVTG,,T,,M,0.014,N,0.027,K,A*3D
$GNGGA,065308.00,2502.95785,N,12122.42077,E,1,12,0.76,283.8,M,16.7,M,,*4E
$GNGSA,A,3,24,18,20,15,23,10,12,13,,,,,1.32,0.76,1.07*13
$GNGSA,A,3,78,79,68,69,,,,,,,,,1.32,0.76,1.07*1B
$GPGSV,3,1,11,10,15,315,40,12,14,150,42,13,13,051,37,15,42,036,44*7E
$GPGSV,3,2,11,18,62,257,42,20,46,329,44,23,41,330,44,24,81,085,47*7E
$GPGSV,3,3,11,32,,,38,41,38,242,42,50,60,167,43*7B
$GLGSV,3,1,10,67,15,074,33,68,39,023,46,69,26,321,44,77,10,031,13*6D
$GLGSV,3,2,10,78,48,075,37,79,40,154,44,82,04,188,21,83,31,226,36*6C
$GLGSV,3,3,10,84,29,296,33,,,,38*55
$GNGLL,2502.95785,N,12122.42077,E,065308.00,A,A*78
$GNRMC,065309.00,A,2502.95774,N,12122.42087,E,0.006,,081020,,,A*6C
$GNVTG,,T,,M,0.006,N,0.011,K,A*3B
$GNGGA,065309.00,2502.95774,N,12122.42087,E,1,12,0.76,283.4,M,16.7,M,,*42
$GNGSA,A,3,24,18,20,15,23,10,12,13,,,,,1.32,0.76,1.07*13
$GNGSA,A,3,78,79,68,69,,,,,,,,,1.32,0.76,1.07*1B
$GPGSV,3,1,11,10,15,315,41,12,14,150,42,13,13,051,38,15,42,036,44*70
$GPGSV,3,2,11,18,62,257,42,20,46,329,44,23,41,330,45,24,81,084,47*7E
$GPGSV,3,3,11,32,,,38,41,38,242,43,50,60,167,43*7A
$GLGSV,3,1,10,67,15,074,31,68,39,023,42,69,26,321,41,77,10,031,12*6F
$GLGSV,3,2,10,78,48,075,37,79,40,154,41,82,04,188,19,83,31,226,33*67
$GLGSV,3,3,10,84,29,296,32,,,,40*5B
$GNGLL,2502.95774,N,12122.42087,E,065309.00,A,A*78
$GNRMC,065310.00,A,2502.95766,N,12122.42087,E,0.041,,081020,,,A*64
$GNVTG,,T,,M,0.041,N,0.076,K,A*39
$GNGGA,065310.00,2502.95766,N,12122.42087,E,1,12,0.76,283.1,M,16.7,M,,*4C
$GNGSA,A,3,24,18,20,15,23,10,12,13,,,,,1.32,0.76,1.07*13
$GNGSA,A,3,78,79,68,69,,,,,,,,,1.32,0.76,1.07*1B
$GPGSV,3,1,11,10,15,315,37,12,14,150,40,13,13,051,35,15,42,036,41*7B
$GPGSV,3,2,11,18,62,257,39,20,46,329,41,23,41,330,41,24,81,084,44*70
$GPGSV,3,3,11,32,,,35,41,38,242,39,50,60,167,40*79
$GLGSV,3,1,10,67,15,074,29,68,39,023,42,69,26,321,34,77,10,031,08*6F
$GLGSV,3,2,10,78,48,075,37,79,40,154,33,82,04,188,19,83,31,226,29*69
$GLGSV,3,3,10,84,29,296,27,,,,41*5E
$GNGLL,2502.95766,N,12122.42087,E,065310.00,A,A*73
$GNRMC,065311.00,A,2502.95763,N,12122.42094,E,0.033,,081020,,,A*67
$GNVTG,,T,,M,0.033,N,0.060,K,A*3B
$GNGGA,065311.00,2502.95763,N,12122.42094,E,1,12,0.76,283.1,M,16.7,M,,*4A
$GNGSA,A,3,24,18,20,15,23,10,12,13,,,,,1.32,0.76,1.07*13
$GNGSA,A,3,78,79,68,69,,,,,,,,,1.32,0.76,1.07*1B
$GPGSV,3,1,11,10,15,315,38,12,14,150,41,13,13,051,36,15,42,036,42*75
$GPGSV,3,2,11,18,62,257,40,20,46,329,42,23,41,330,42,24,81,084,45*7F
$GPGSV,3,3,11,32,,,35,41,38,242,39,50,60,167,41*78
$GLGSV,3,1,10,67,15,074,28,68,39,023,40,69,26,321,39,77,10,031,08*61
$GLGSV,3,2,10,78,48,075,42,79,40,154,41,82,04,188,18,83,31,226,29*6F
$GLGSV,3,3,10,84,29,296,26,,,,45*5B
$GNGLL,2502.95763,N,12122.42094,E,065311.00,A,A*75
$GNRMC,065312.00,A,2502.95767,N,12122.42095,E,0.019,,081020,,,A*69
$GNVTG,,T,,M,0.019,N,0.035,K,A*33
$GNGGA,065312.00,2502.95767,N,12122.42095,E,1,12,0.80,282.8,M,16.7,M,,*4D
$GNGSA,A,3,24,18,20,15,23,10,12,13,,,,,1.36,0.80,1.10*18
$GNGSA,A,3,78,79,68,69,,,,,,,,,1.36,0.80,1.10*10
$GPGSV,3,1,11,10,15,315,38,12,14,150,40,13,13,051,35,15,42,036,41*74
$GPGSV,3,2,11,18,62,257,38,20,46,329,42,23,41,330,42,24,81,084,44*71
$GPGSV,3,3,11,32,,,37,41,38,242,39,50,60,167,40*7B
$GLGSV,3,1,10,67,15,074,27,68,39,023,41,69,26,321,35,77,10,031,08*63
$GLGSV,3,2,10,78,48,075,40,79,40,154,37,82,04,188,19,83,31,226,29*6D
$GLGSV,3,3,10,84,29,296,27,,,,42*5D
$GNGLL,2502.95767,N,12122.42095,E,065312.00,A,A*73
$GNRMC,065313.00,A,2502.95766,N,12122.42099,E,0.014,,081020,,,A*68
$GNVTG,,T,,M,0.014,N,0.026,K,A*3C
$GNGGA,065313.00,2502.95766,N,12122.42099,E,1,12,0.82,282.5,M,16.7,M,,*4E
$GNGSA,A,3,24,18,20,15,23,10,12,13,,,,,1.37,0.82,1.10*1B
$GNGSA,A,3,78,79,68,69,,,,,,,,,1.37,0.82,1.10*13
$GPGSV,3,1,11,10,15,315,38,12,14,150,41,13,13,051,36,15,42,036,42*75
$GPGSV,3,2,11,18,62,257,40,20,46,329,42,23,41,330,43,24,81,084,45*7E
$GPGSV,3,3,11,32,,,36,41,38,242,40,50,60,167,41*75
$GLGSV,3,1,10,67,15,074,27,68,39,023,41,69,26,321,38,77,10,031,08*6E
$GLGSV,3,2,10,78,48,075,41,79,40,154,39,82,04,188,19,83,31,226,30*6A
$GLGSV,3,3,10,84,29,296,27,,,,44*5B
$GNGLL,2502.95766,N,12122.42099,E,065313.00,A,A*7F
$GNRMC,065314.00,A,2502.95765,N,12122.42105,E,0.020,,081020,,,A*6F
$GNVTG,,T,,M,0.020,N,0.037,K,A*3B
$GNGGA,065314.00,2502.95765,N,12122.42105,E,1,12,0.80,282.1,M,16.7,M,,*48
$GNGSA,A,3,24,18,20,15,23,10,12,13,,,,,1.36,0.80,1.10*18
$GNGSA,A,3,78,79,68,69,,,,,,,,,1.36,0.80,1.10*10
$GPGSV,3,1,11,10,15,315,37,12,14,150,40,13,13,051,37,15,42,036,42*7A
$GPGSV,3,2,11,18,62,257,40,20,46,329,43,23,41,330,42,24,81,084,45*7E
$GPGSV,3,3,11,32,,,36,41,38,242,41,50,60,167,41*74
$GLGSV,3,1,10,67,15,074,24,68,39,023,40,69,26,321,38,77,10,031,08*6C
$GLGSV,3,2,10,78,48,075,39,79,40,154,40,82,04,188,17,83,31,226,29*6D
$GLGSV,3,3,10,84,29,296,26,,,,43*5D
$GNGLL,2502.95765,N,12122.42105,E,065314.00,A,A*7F
$GNRMC,065315.00,A,2502.95766,N,12122.42110,E,0.024,,081020,,,A*6D
$GNVTG,,T,,M,0.024,N,0.044,K,A*3B
$GNGGA,065315.00,2502.95766,N,12122.42110,E,1,12,0.80,281.9,M,16.7,M,,*45
$GNGSA,A,3,24,18,20,15,23,10,12,13,,,,,1.36,0.80,1.10*18
$GNGSA,A,3,78,79,68,69,,,,,,,,,1.36,0.80,1.10*10
$GPGSV,3,1,11,10,15,315,35,12,14,150,38,13,13,051,35,15,42,036,40*77
$GPGSV,3,2,11,18,62,257,38,20,46,329,40,23,41,330,41,24,81,084,42*76
$GPGSV,3,3,11,32,,,35,41,38,242,38,50,60,167,39*76
$GLGSV,3,1,10,67,15,074,22,68,39,023,39,69,26,321,36,77,10,031,08*6A
$GLGSV,3,2,10,78,48,075,38,79,40,154,38,82,04,188,16,83,31,226,28*63
$GLGSV,3,3,10,84,29,296,26,,,,40*5E
$GNGLL,2502.95766,N,12122.42110,E,065315.00,A,A*79
$GNRMC,065316.00,A,2502.95764,N,12122.42111,E,0.012,,081020,,,A*68
$GNVTG,,T,,M,0.012,N,0.022,K,A*3E
$GNGGA,065316.00,2502.95764,N,12122.42111,E,1,12,0.80,281.7,M,16.7,M,,*4B
$GNGSA,A,3,24,18,20,15,23,10,12,13,,,,,1.36,0.80,1.10*18
$GNGSA,A,3,78,79,68,69,,,,,,,,,1.36,0.80,1.10*10
$GPGSV,3,1,11,10,15,315,36,12,14,150,38,13,13,051,34,15,42,036,40*75
$GPGSV,3,2,11,18,62,257,38,20,46,329,40,23,41,330,41,24,81,084,42*76
$GPGSV,3,3,11,32,,,35,41,38,242,39,50,60,167,39*77
$GLGSV,3,1,10,67,15,074,17,68,39,023,40,69,26,321,35,77,10,031,08*61
$GLGSV,3,2,10,78,48,075,37,79,40,154,37,82,04,188,16,83,31,226,27*6C
$GLGSV,3,3,10,84,29,296,26,,,,38*51
$GNGLL,2502.95764,N,12122.42111,E,065316.00,A,A*79
$GNRMC,065317.00,A,2502.95765,N,12122.42115,E,0.027,,081020,,,A*6A
$GNVTG,,T,,M,0.027,N,0.050,K,A*3D
$GNGGA,065317.00,2502.95765,N,12122.42115,E,1,12,0.76,281.6,M,16.7,M,,*47
$GNGSA,A,3,24,18,20,15,23,10,12,13,,,,,1.32,0.76,1.07*13
$GNGSA,A,3,78,79,68,69,,,,,,,,,1.32,0.76,1.07*1B
$GPGSV,3,1,11,10,15,315,36,12,14,150,38,13,13,051,34,15,42,036,40*75
$GPGSV,3,2,11,18,62,257,39,20,46,329,40,23,41,330,41,24,81,084,43*76
$GPGSV,3,3,11,32,,,35,41,38,242,38,50,60,167,39*76
$GLGSV,3,1,10,67,15,074,16,68,39,023,38,69,26,321,38,77,10,031,08*62
$GLGSV,3,2,10,78,48,075,41,79,40,154,41,82,04,188,14,83,31,226,27*6E
$GLGSV,3,3,10,84,29,296,26,,,,43*5D
$GNGLL,2502.95765,N,12122.42115,E,065317.00,A,A*7D
$GNRMC,065318.00,A,2502.95763,N,12122.42120,E,0.005,,081020,,,A*65
$GNVTG,,T,,M,0.005,N,0.009,K,A*31
$GNGGA,065318.00,2502.95763,N,12122.42120,E,1,12,0.78,281.4,M,16.7,M,,*44
$GNGSA,A,3,24,18,20,15,23,10,12,13,,,,,1.33,0.78,1.08*13
$GNGSA,A,3,78,79,68,69,,,,,,,,,1.33,0.78,1.08*1B
$GPGSV,3,1,11,10,15,315,36,12,14,150,36,13,13,051,34,15,42,036,39*75
$GPGSV,3,2,11,18,62,257,37,20,46,329,39,23,41,330,39,24,81,084,41*7B
$GPGSV,3,3,11,32,,,35,41,38,242,37,50,60,167,38*78
$GLGSV,3,1,10,67,15,074,15,68,39,023,38,69,26,321,34,77,10,031,08*6D
$GLGSV,3,2,10,78,48,075,40,79,40,154,37,82,04,188,,83,31,226,28*64
$GLGSV,3,3,10,84,29,296,26,,,,40*5E
$GNGLL,2502.95763,N,12122.42120,E,065318.00,A,A*72
$GNRMC,065319.00,A,2502.95755,N,12122.42129,E,0.025,,081020,,,A*6A
$GNVTG,,T,,M,0.025,N,0.046,K,A*38
$GNGGA,065319.00,2502.95755,N,12122.42129,E,1,12,0.76,281.1,M,16.7,M,,*42
$GNGSA,A,3,24,18,20,15,23,10,12,13,,,,,1.32,0.76,1.07*13
$GNGSA,A,3,78,79,68,69,,,,,,,,,1.32,0.76,1.07*1B
$GPGSV,3,1,11,10,15,315,40,12,14,150,42,13,13,051,39,15,42,036,45*71
$GPGSV,3,2,11,18,62,257,44,20,46,329,44,23,41,330,45,24,81,084,47*78
$GPGSV,3,3,11,32,,,39,41,38,242,43,50,60,167,44*7C
$GLGSV,3,1,10,67,15,074,16,68,39,023,41,69,26,321,35,77,10,031,08*61
$GLGSV,3,2,10,78,48,075,40,79,40,154,37,82,04,188,,83,31,226,28*64
$GLGSV,3,3,10,84,29,296,26,,,,40*5E
$GNGLL,2502.95755,N,12122.42129,E,065319.00,A,A*7F
$GNRMC,065320.00,A,2502.95754,N,12122.42134,E,0.041,,081020,,,A*6F
$GNVTG,,T,,M,0.041,N,0.075,K,A*3A
$GNGGA,065320.00,2502.95754,N,12122.42134,E,1,12,0.76,281.1,M,16.7,M,,*45
$GNGSA,A,3,24,18,20,15,23,10,12,13,,,,,1.32,0.76,1.07*13
$GNGSA,A,3,78,79,68,69,,,,,,,,,1.32,0.76,1.07*1B
$GPGSV,3,1,11,10,15,315,35,12,14,150,36,13,13,051,34,15,42,036,39*76
$GPGSV,3,2,11,18,62,257,38,20,46,329,39,23,41,330,40,24,81,084,42*79
$GPGSV,3,3,11,32,,,35,41,38,242,38,50,60,167,39*76
$GLGSV,3,1,10,67,15,074,17,68,39,023,43,69,26,321,39,77,10,031,08*6E
$GLGSV,3,2,10,78,48,075,38,79,40,154,40,82,04,188,,83,31,226,29*6A
$GLGSV,3,3,10,84,29,296,27,,,,38*50
$GNGLL,2502.95754,N,12122.42134,E,065320.00,A,A*78
$GNRMC,065321.00,A,2502.95745,N,12122.42138,E,0.054,,081020,,,A*66
$GNVTG,,T,,M,0.054,N,0.099,K,A*3C
$GNGGA,065321.00,2502.95745,N,12122.42138,E,1,12,0.76,281.1,M,16.7,M,,*48
$GNGSA,A,3,24,18,20,15,23,10,12,13,,,,,1.32,0.76,1.07*13
$GNGSA,A,3,78,79,68,69,,,,,,,,,1.32,0.76,1.07*1B
$GPGSV,3,1,11,10,15,315,37,12,14,150,40,13,13,051,36,15,42,036,42*7B
$GPGSV,3,2,11,18,62,257,41,20,46,329,42,23,41,330,43,24,81,084,45*7F
$GPGSV,3,3,11,32,,,37,41,38,242,41,50,60,167,41*75
$GLGSV,3,1,10,67,15,074,19,68,39,023,40,69,26,321,39,77,10,031,08*63
$GLGSV,3,2,10,78,48,075,43,79,40,154,40,82,04,188,23,83,31,226,30*6F
$GLGSV,3,3,10,84,29,296,31,,,,42*5A
$GNGLL,2502.95745,N,12122.42138,E,065321.00,A,A*75
$GNRMC,065322.00,A,2502.95744,N,12122.42141,E,0.048,,081020,,,A*67
$GNVTG,,T,,M,0.048,N,0.089,K,A*30
$GNGGA,065322.00,2502.95744,N,12122.42141,E,1,12,0.80,280.9,M,16.7,M,,*44
$GNGSA,A,3,24,18,20,15,23,10,12,13,,,,,1.36,0.80,1.10*18
$GNGSA,A,3,78,79,68,69,,,,,,,,,1.36,0.80,1.10*10
$GPGSV,3,1,11,10,15,315,36,12,14,150,38,13,13,051,35,15,42,036,41*75
$GPGSV,3,2,11,18,62,257,39,20,46,329,41,23,41,330,40,24,81,084,44*71
$GPGSV,3,3,11,32,,,37,41,38,242,40,50,60,167,41*74
$GLGSV,3,1,10,67,15,074,22,68,39,023,35,69,26,321,42,77,10,031,08*65
$GLGSV,3,2,10,78,48,075,41,79,40,154,44,82,04,188,23,83,31,226,31*68
$GLGSV,3,3,10,84,29,296,31,,,,42*5A
$GNGLL,2502.95744,N,12122.42141,E,065322.00,A,A*79
$GNRMC,065323.00,A,2502.95737,N,12122.42138,E,0.012,,081020,,,A*63
$GNVTG,,T,,M,0.012,N,0.022,K,A*3E
$GNGGA,065323.00,2502.95737,N,12122.42138,E,1,12,0.80,280.9,M,16.7,M,,*4F
$GNGSA,A,3,24,18,20,15,23,10,12,13,,,,,1.36,0.80,1.10*18
$GNGSA,A,3,78,79,68,69,,,,,,,,,1.36,0.80,1.10*10
$GPGSV,3,1,11,10,15,315,35,12,14,150,38,13,13,051,34,15,42,036,42*74
$GPGSV,3,2,11,18,62,257,41,20,46,329,41,23,41,330,41,24,81,084,44*7F
$GPGSV,3,3,11,32,,,36,41,38,242,40,50,60,167,41*75
$GLGSV,3,1,10,67,15,074,23,68,39,023,42,69,26,321,42,77,10,031,08*64
$GLGSV,3,2,10,78,48,075,37,79,40,154,43,82,04,188,22,83,31,226,31*6F
$GLGSV,3,3,10,84,29,296,30,,,,39*57
$GNGLL,2502.95737,N,12122.42138,E,065323.00,A,A*72
$GNRMC,065324.00,A,2502.95734,N,12122.42140,E,0.017,,081020,,,A*6D
$GNVTG,,T,,M,0.017,N,0.032,K,A*3A
$GNGGA,065324.00,2502.95734,N,12122.42140,E,1,12,0.80,280.7,M,16.7,M,,*4A
$GNGSA,A,3,24,18,20,15,23,10,12,13,,,,,1.36,0.80,1.10*18
$GNGSA,A,3,78,79,68,69,,,,,,,,,1.36,0.80,1.10*10
$GPGSV,3,1,11,10,15,315,38,12,14,150,39,13,13,051,37,15,42,036,44*7D
$GPGSV,3,2,11,18,62,257,42,20,46,329,44,23,41,330,43,24,81,084,46*79
$GPGSV,3,3,11,32,,,38,41,38,242,41,50,60,167,42*79
$GLGSV,3,1,10,67,15,074,25,68,39,023,42,69,26,321,42,77,10,031,08*62
$GLGSV,3,2,10,78,48,075,38,79,40,154,45,82,04,188,22,83,31,226,32*65
$GLGSV,3,3,10,84,29,296,30,,,,39*57
$GNGLL,2502.95734,N,12122.42140,E,065324.00,A,A*79
$GNRMC,065325.00,A,2502.95744,N,12122.42141,E,0.025,,081020,,,A*6B
$GNVTG,,T,,M,0.025,N,0.047,K,A*39
$GNGGA,065325.00,2502.95744,N,12122.42141,E,1,12,0.79,280.6,M,16.7,M,,*4A
$GNGSA,A,3,24,18,20,15,23,10,12,13,,,,,1.33,0.79,1.07*1D
$GNGSA,A,3,78,79,68,69,,,,,,,,,1.33,0.79,1.07*15
$GPGSV,3,1,11,10,15,315,35,12,14,150,39,13,13,051,37,15,42,036,43*77
$GPGSV,3,2,11,18,62,257,41,20,46,329,42,23,41,330,41,24,81,084,45*7D
$GPGSV,3,3,11,32,,,37,41,38,242,40,50,60,167,40*75
$GLGSV,3,1,10,67,15,074,27,68,39,023,43,69,26,321,43,77,10,031,08*60
$GLGSV,3,2,10,78,48,075,31,79,40,154,44,82,04,188,21,83,31,226,32*6E
$GLGSV,3,3,10,84,29,296,30,,,,32*5C
$GNGLL,2502.95744,N,12122.42141,E,065325.00,A,A*7E
$GNRMC,065326.00,A,2502.95745,N,12122.42158,E,0.006,,081020,,,A*60
$GNVTG,,T,,M,0.006,N,0.012,K,A*38
$GNGGA,065326.00,2502.95745,N,12122.42158,E,1,12,0.78,280.2,M,16.7,M,,*45
$GNGSA,A,3,24,18,20,15,23,10,12,13,,,,,1.33,0.78,1.08*13
$GNGSA,A,3,78,79,68,69,,,,,,,,,1.33,0.78,1.08*1B
$GPGSV,3,1,11,10,15,315,38,12,14,150,40,13,13,051,37,15,42,036,45*72
$GPGSV,3,2,11,18,62,257,43,20,46,329,43,23,41,330,44,24,81,084,47*79
$GPGSV,3,3,11,32,,,41,41,38,242,42,50,60,167,43*75
$GLGSV,3,1,10,67,15,074,27,68,39,023,40,69,26,321,40,77,10,031,08*60
$GLGSV,3,2,10,78,48,075,39,79,40,154,43,82,04,188,20,83,31,226,31*63
$GLGSV,3,3,10,84,29,296,29,,,,41*50
$GNGLL,2502.95745,N,12122.42158,E,065326.00,A,A*74
$GNRMC,065327.00,A,2502.95747,N,12122.42175,E,0.011,,081020,,,A*6A
